Time from start of file (s),Time from initialisation (s),Time from start of region (s),Time (),Seconds from midnight Sunday (),Latitude (deg),Longitude (deg),Altitude (m),Distance horizontal (m),Velocity forward (m/s),Velocity lateral (m/s),Velocity down (m/s),Speed horizontal (m/s),Number of GPS satellites used (),GPS position mode (),GPS velocity mode (),GPS dual antenna attitude mode (),Heading (deg),Pitch (deg),Roll (deg),Slip angle (deg),Angular rate forward (deg/s),Angular rate lateral (deg/s),Angular rate down (deg/s),Angular rate Xv (deg/s),Angular rate Yv (deg/s),Angular rate Zv (deg/s),Acceleration forward (m/s²),Acceleration lateral (m/s²),Acceleration down (m/s²),Acceleration Xv (m/s²),Acceleration Yv (m/s²),Acceleration Zv (m/s²)
0.460000000,-0.020000000,0.010000000,1.26057251946E+18,169319.46,38.0160312561007,-122.013036843295,19.3387870788574,0.000130097493620927,0.000712577673082328,0.0129252556284131,0.0038,0.0129448831589938,,,,,293.970624815739,1.1023707978317,-1.6288044199979,,-0.18402332687149,-0.00994806302733398,-0.00362886361542575,-0.183919452236994,-0.009740282517224,-0.0074484513367007,0.00783163894494315,-0.00645170456829486,-9.79113475961493,0.1962,0.2718,-9.7854
0.470000000,-0.010000000,0.020000000,1.26057251947E+18,169319.47,38.01603125718,-122.013036842755,19.3387508392334,0.000259546201758838,0.000712784477081159,0.0129252442255159,0.0039,0.0129448831589938,15,gxSPS (21),gxInteger (24),RTK Integer (6),293.971541548211,1.1019124315956,-1.62840334954131,,0.0407066057542121,-0.040398231393734,0.0903730753515695,0.038961130068896,-0.0429718346348117,0.0899543738355393,0.00273969666342647,-0.00259139743975906,-9.78433910434024,0.1909,0.2754,-9.7786
0.480000000,0.000000000,0.030000000,1.26057251948E+18,169319.48,38.0160312567863,-122.013036844531,19.338695526123,0.000389287799211102,0.000844670714044021,0.0129759982808583,0.004,0.0130034610777285,15,gxSPS (21),gxInteger (24),RTK Integer (6),293.971025886195,1.10013626243069,-1.62868982843888,,-0.024605228327054,-0.169027404456081,-0.0577829972873099,-0.0234912696003638,-0.1673036761782,-0.0630253574643906,0.000998193833478017,0.00994987944562042,-9.79186202330834,0.189,0.2882,-9.7858
0.490000000,0.010000000,0.040000000,1.26057251949E+18,169319.49,38.0160312578771,-122.013036844025,19.3386554718018,0.000518850323377773,0.000803862867548616,0.0128846344337034,0.004,0.0129096862858863,15,gxSPS (21),gxInteger (24),RTK Integer (6),293.970223745282,1.10036544554875,-1.62909089889547,,-0.0393614859047019,0.0223468071066994,-0.0801409722034568,-0.0378152144786343,0.0246371851906254,-0.0802140913183153,0.00217263916828095,-0.00460004592261154,-9.80157941809465,0.1904,0.274,-9.7959
0.500000000,0.020000000,0.050000000,1.2605725195E+18,169319.5,38.0160312589643,-122.013036843514,19.3386154174805,0.000648419025720219,0.000844670714044021,0.0129759982808583,0.004,0.0130034610777285,15,gxSPS (21),gxInteger (24),RTK Integer (6),293.971025886195,1.10082381178485,-1.62897630733644,,0.0164189944083263,0.0509782778788113,0.079069111596961,0.0148969026734014,0.04870141258612,0.0807870491134461,0.00175687451320145,0.000566283136886836,-9.80352041527508,0.1901,0.2792,-9.7977
0.510000000,0.030000000,0.060000000,1.26057251951E+18,169319.51,38.0160312586399,-122.013036845214,19.3385620117188,0.000778456612753549,0.000844644762045767,0.0129759999701737,0.0039,0.0130034610777285,15,gxSPS (21),gxInteger (24),RTK Integer (6),293.970911294636,1.10168324847755,-1.62851794110034,,0.0506461697640244,0.0935037676604463,-0.0185384869833434,0.0509932437666433,0.093965078401455,-0.0148969026734014,-4.5251956400566E-05,0.0139682362782279,-9.80636894759358,0.1885,0.2926,-9.8002
0.520000000,0.040000000,0.070000000,1.26057251952E+18,169319.52,38.0160312597478,-122.013036844709,19.3385238647461,0.000908787223401781,0.000976764465431309,0.0130267390846317,0.0038,0.0130633073913156,15,gxSPS (21),gxInteger (24),RTK Integer (6),293.971426956652,1.10185513581609,-1.62937737779303,,-0.0861926725483357,0.0219377584570733,0.0474705665979021,-0.0870895848598851,0.0206264806247096,0.0464095814055967,0.00258728574318684,0.00156070219462512,-9.80837288851526,0.1912,0.2804,-9.8025
0.530000000,0.050000000,0.080000000,1.26057251953E+18,169319.53,38.0160312608291,-122.01303684422,19.3384838104248,0.00103942017273353,0.000976516957212409,0.0130267576408052,0.0037,0.0130633073913156,15,gxSPS (21),gxInteger (24),RTK Integer (6),293.970338336841,1.10242809361122,-1.62886171577742,,0.0534164743650881,0.0598728971349481,-0.112803554740067,0.0555769061276899,0.0630253574643906,-0.110007896665118,0.00587180193304068,-0.0028776460453242,-9.80930983612483,0.1946,0.2759,-9.8035
0.540000000,0.060000000,0.090000000,1.26057251954E+18,169319.54,38.0160312604213,-122.013036845909,19.3384532928467,0.00117099554586796,0.00105773005905712,0.013209511994096,0.0036,0.0132517923316056,15,gxSPS (21),gxInteger (24),RTK Integer (6),293.970166449502,1.10288645984732,-1.62828875798229,,0.065806268591766,0.0503348038494674,-0.00499115827876058,0.0658901464400447,0.0504202859715124,-0.00229183118052329,0.00522998361639618,0.0213889368634819,-9.81779081976446,0.1942,0.3003,-9.8113
0.550000000,0.070000000,0.100000000,1.26057251955E+18,169319.55,38.016031261573,-122.013036845405,19.3384227752686,0.00130398835390294,0.00109850245981643,0.013300875623273,0.0034,0.0133461604965623,15,gxSPS (21),gxInteger (24),RTK Integer (6),293.970796703077,1.10225620627268,-1.62771580018716,,0.0550251876699754,-0.0555800634425879,0.0601436834476965,0.0538580327422974,-0.0572957795130823,0.0595876106936056,0.00401991345147315,0.0162579481233958,-9.81871721251909,0.1929,0.2951,-9.8124
0.560000000,0.080000000,0.110000000,1.26057251956E+18,169319.56,38.0160312626617,-122.013036844923,19.3383846282959,0.00143744664961703,0.0010988615830578,0.0133008459588584,0.0032,0.0133461604965623,15,gxSPS (21),gxInteger (24),RTK Integer (6),293.972343689124,1.10185513581609,-1.62720013817154,,0.0522308738992574,-0.0414740995002022,0.1532435731489,0.0492743703812508,-0.0458366236104659,0.15297973129993,0.00398941399060487,0.0009888516251364,-9.81347595486678,0.1927,0.2796,-9.8076
0.570000000,0.090000000,0.120000000,1.26057251957E+18,169319.57,38.0160312623547,-122.013036846526,19.3383598327637,0.00157185302118257,0.00117962181587867,0.0134836379501788,0.003,0.0135351394525509,15,gxSPS (21),gxInteger (24),RTK Integer (6),293.970223745282,1.10145406535949,-1.62737202551008,,-0.00726438545108501,-0.0331696463310618,-0.198997712489293,-0.00343774677078494,-0.0275019741662795,-0.199962270500657,-0.00020449567570574,0.0254279408069018,-9.82189385953686,0.1886,0.3043,-9.8154
0.580000000,0.100000000,0.130000000,1.26057251958E+18,169319.58,38.0160312635432,-122.013036845991,19.3383312225342,0.00170831267076813,0.001169745235568,0.0137069944219681,0.0029,0.0137568164921976,15,gxSPS (21),gxInteger (24),RTK Integer (6),293.971255069313,1.10386048809904,-1.62794498330521,,-0.0570611118531099,0.243605270198589,0.101954332325682,-0.0590146528984748,0.240642273954946,0.107716065484595,-0.00621353612430381,0.0217267695452725,-9.81127771187086,0.1828,0.3004,-9.805
0.590000000,0.110000000,0.140000000,1.26057251959E+18,169319.59,38.0160312646551,-122.013036845523,19.3382987976074,0.00184557799359968,0.00103751031203453,0.0136562649488219,0.003,0.0136956197377118,15,gxSPS (21),gxInteger (24),RTK Integer (6),293.970281041061,1.10271457250878,-1.6283460537618,,-0.0391846529822195,-0.106626673401362,-0.100553820464241,-0.0372422566835035,-0.103705360918679,-0.10427831871381,-0.00772367817303568,-0.00411928285248198,-9.79600367018634,0.1808,0.2742,-9.7905
0.600000000,0.120000000,0.150000000,1.2605725196E+18,169319.6,38.0160312644253,-122.013036847009,19.3382740020752,0.00198317033384498,0.000987078085076545,0.0137882441541322,0.003,0.0138235306633291,15,gxSPS (21),gxInteger (24),RTK Integer (6),293.97159884399,1.10271457250878,-1.62765850440764,,0.0738218656941655,0.00469014877886345,0.143489446092972,0.0710467665962221,0.000572957795130823,0.144958322168098,-0.0147544214710457,0.015858975354027,-9.79753349624015,0.1738,0.2941,-9.7916
0.610000000,0.130000000,0.160000000,1.26057251961E+18,169319.61,38.0160312656132,-122.013036846415,19.3382434844971,0.00212239669833485,0.000753470359806336,0.0140015100048849,0.003,0.0140217687899922,15,gxSPS (21),gxInteger (24),RTK Integer (6),293.971140477754,1.10294375562683,-1.6274866170691,,0.0185248546042743,0.026107702404914,-0.0498286686759188,0.019480565034448,0.0275019741662795,-0.04870141258612,-0.0178343731308383,0.0177756809113188,-9.79442665551706,0.1707,0.2959,-9.7885
0.620000000,0.140000000,0.170000000,1.26057251962E+18,169319.62,38.0160312667409,-122.013036845921,19.3382148742676,0.0022616809108967,0.000672297983469542,0.0138187559288607,0.003,0.0138351002887583,15,gxSPS (21),gxInteger (24),RTK Integer (6),293.971484252431,1.10151136113901,-1.62817416642326,,-0.067036038478779,-0.138456232372933,0.0304502109921601,-0.0676090198254372,-0.13922874421679,0.0252101429857562,-0.00970776192518802,-0.0185768224985953,-9.80585594127429,0.1788,0.26,-9.8008
0.630000000,0.150000000,0.180000000,1.26057251963E+18,169319.63,38.0160312665525,-122.013036847298,19.3381900787354,0.0023995691018237,0.000631861974052106,0.0137273723066633,0.0029,0.0137419067090415,15,gxSPS (21),gxInteger (24),RTK Integer (6),293.972286393344,1.10300105140635,-1.62805957486423,,0.0166302076506786,0.154458460415787,0.0898826222893241,0.0148969026734014,0.151833815709668,0.0945380361965858,-0.0114412977442735,-0.00116655865418597,-9.80992375637277,0.1774,0.2775,-9.8044
0.640000000,0.160000000,0.190000000,1.26057251964E+18,169319.64,38.0160312677137,-122.013036846676,19.3381614685059,0.00253754790539621,0.000357642403204163,0.0138492632263031,0.0029,0.0138538803228554,15,gxSPS (21),gxInteger (24),RTK Integer (6),293.971885322888,1.10208431893414,-1.62949196935206,,-0.141160598440087,-0.0877524730501704,-0.03950468553944,-0.140374659807052,-0.0865166270647543,-0.0446907080202042,-0.0181080593102225,0.0130005833802003,-9.79549404129367,0.1703,0.2915,-9.7897
0.650000000,0.170000000,0.200000000,1.26057251965E+18,169319.65,38.0160312688522,-122.01303684612,19.3381290435791,0.00267516043818846,0.000276466737656448,0.0136665125815978,0.003,0.0136693086877135,15,gxSPS (21),gxInteger (24),RTK Integer (6),293.972229097565,1.10300105140635,-1.62760120862813,,0.186765786295312,0.0931528698721233,0.0270078575990314,0.186211283417518,0.0922462050160626,0.0332315521175878,-0.0124025045207728,-0.017995377613139,-9.79231468317201,0.1761,0.2601,-9.7873
0.660000000,0.180000000,0.210000000,1.26057251966E+18,169319.66,38.0160312700763,-122.013036848169,19.3380107879639,0.0028116643427275,0.000367745605765833,0.0136258857755905,0.003,0.013630847369111,15,gxSPS (21),gxInteger (24),RTK Integer (6),293.971828027108,1.10311564296537,-1.62828875798229,,-0.0658591492674874,0.0244022092181716,-0.0275171381053835,-0.0653171886449139,0.0252101429857562,-0.0280749319614103,-0.00272602950002751,-0.0074593033133708,-9.79780699123826,0.1859,0.2709,-9.7923
0.670000000,0.190000000,0.220000000,1.26057251967E+18,169319.67,38.0160312712301,-122.013036847551,19.3379764556885,0.00294862615201311,0.000317054844554846,0.013757887782125,0.0032,0.0137615406114287,15,gxSPS (21),gxInteger (24),RTK Integer (6),293.972057210226,1.10231350205219,-1.62708554661251,,0.119590188346077,-0.0732960826500692,0.0204199476544607,0.119175221387211,-0.0739115555718762,0.0206264806247096,-0.00627148494819574,0.015375313111583,-9.7864722279391,0.182,0.2932,-9.7804
0.680000000,0.200000000,0.230000000,1.26057251968E+18,169319.68,38.0160312723506,-122.013036846962,19.3379459381104,0.00308578026770834,0.000276343739032026,0.0136665150692449,0.0033,0.0136693086877135,15,gxSPS (21),gxInteger (24),RTK Integer (6),293.971713435549,1.10288645984732,-1.62679906771495,,0.0336871988073072,0.0603220917519126,-0.0361864346097066,0.0343774677078494,0.0613064840789981,-0.0338045099127186,-0.00714878365159252,-0.0113564443731383,-9.78539617675562,0.1812,0.2664,-9.7801
0.690000000,0.210000000,0.240000000,1.26057251969E+18,169319.69,38.016031273578,-122.013036848915,19.3378276824951,0.00322227766338297,0.000367718353993554,0.0136258865110545,0.0034,0.013630847369111,15,gxSPS (21),gxInteger (24),RTK Integer (6),293.971713435549,1.10305834718586,-1.62674177193543,,0.00303509555275913,0.0306310335027134,0.00881750557980766,0.00286478897565412,0.0303667631419336,0.009740282517224,0.000894994238041569,-0.000774678949463758,-9.79725861600365,0.1895,0.2773,-9.7915
0.700000000,0.220000000,0.250000000,1.2605725197E+18,169319.7,38.0160312747446,-122.013036848315,19.3377914428711,0.00335951470541993,0.00044908593944596,0.0138086321487319,0.0034,0.0138159328313364,15,gxSPS (21),gxInteger (24),RTK Integer (6),293.972171801785,1.10139676957998,-1.62530937744761,,0.146265583320517,-0.163381424987814,0.0367956847992664,0.145531279963229,-0.164438887202546,0.0349504255029802,0.00644332967599207,0.0174736216965866,-9.79396845237147,0.1947,0.2952,-9.7876
0.710000000,0.230000000,0.260000000,1.26057251971E+18,169319.71,38.0160312758516,-122.013036847726,19.3377571105957,0.00349702303354682,0.000499926676577799,0.0136766250704641,0.0034,0.0136857590216984,15,gxSPS (21),gxInteger (24),RTK Integer (6),293.972572872242,1.10254268517024,-1.62536667322712,,-0.00151796841017918,0.118644203057246,0.0402323747331392,-0.00229183118052329,0.117456348001819,0.0435447924299426,0.00998355058874453,-0.0113409162456441,-9.79732540555515,0.1985,0.2665,-9.7917
0.720000000,0.240000000,0.270000000,1.26057251972E+18,169319.72,38.0160312770949,-122.013036849634,19.3376407623291,0.00363351416979104,0.000682484352443662,0.0135953747689672,0.0036,0.0136124942607885,15,gxSPS (21),gxInteger (24),RTK Integer (6),293.971770731329,1.10139676957998,-1.62548126478615,,-0.0127879218938148,-0.105138734159958,-0.069005099972368,-0.0114591559026165,-0.103132403123548,-0.0721926821864837,0.0157395294893683,-0.00692108431715655,-9.789053085248,0.2039,0.2707,-9.7832
0.730000000,0.250000000,0.280000000,1.26057251973E+18,169319.73,38.016031278269,-122.013036849097,19.3376045227051,0.0037703936654926,0.0008550200634188,0.013737501253545,0.0036,0.0137640836963454,15,gxSPS (21),gxInteger (24),RTK Integer (6),293.971369660872,1.10082381178485,-1.62513749010907,,0.0386400662423862,-0.0500305066147528,-0.0469061901490875,0.0395340878640268,-0.04870141258612,-0.0475554969958583,0.0125916170744072,0.0113288788809023,-9.79661097766379,0.2008,0.2891,-9.7903
0.740000000,0.260000000,0.290000000,1.26057251974E+18,169319.74,38.016031279403,-122.013036848529,19.3375720977783,0.00390739529527587,0.000905821334194324,0.0136054947616953,0.0035,0.0136356151309723,15,gxSPS (21),gxInteger (24),RTK Integer (6),293.97159884399,1.10133947380047,-1.62565315212468,,-0.0511988785623061,0.0509688947497196,0.0196027743135836,-0.0515662015617741,0.0504202859715124,0.0200535228295788,0.0086012242615677,-0.00806652296936938,-9.80709464266296,0.1971,0.2701,-9.8014
0.750000000,0.270000000,0.300000000,1.26057251975E+18,169319.75,38.0160312806592,-122.0130368504,19.3374576568604,0.00404325217763959,0.00118014767686149,0.0134835919346737,0.0037,0.0135351394525509,15,gxSPS (21),gxInteger (24),RTK Integer (6),293.972458280683,1.10151136113901,-1.62599692680176,,-0.0325590817625908,0.0313351471001313,0.0949032549630917,-0.0343774677078494,0.0286478897565412,0.0951109939917167,0.0144038222868848,-0.00868642869137287,-9.78467760050683,0.2025,0.2689,-9.7789
0.760000000,0.280000000,0.310000000,1.26057251976E+18,169319.76,38.0160312818415,-122.013036849916,19.3374176025391,0.00417938799318058,0.00135261774713626,0.0136257265945759,0.0038,0.0136926987843887,15,gxSPS (21),gxInteger (24),RTK Integer (6),293.971770731329,1.1023707978317,-1.6261688141403,,-0.0196046823124681,0.0904042485473905,-0.0658254942249959,-0.0183346494441863,0.0922462050160626,-0.0635983152595214,0.0138164750285739,0.00933152879866334,-9.78678270360531,0.2021,0.287,-9.7805
0.770000000,0.290000000,0.320000000,1.26057251977E+18,169319.77,38.0160312829913,-122.013036849396,19.3373851776123,0.00431568387144809,0.00140359306499869,0.0134936995115457,0.0038,0.013566502865514,15,gxSPS (21),gxInteger (24),RTK Integer (6),293.972744759581,1.10242809361122,-1.62674177193543,,-0.0543234999745728,0.00669285147231502,0.0954489200947577,-0.0561498639228207,0.00401070456591576,0.0945380361965858,0.0084472046159948,-0.00750484240446647,-9.80541551705356,0.1971,0.2708,-9.7997
0.780000000,0.300000000,0.330000000,1.26057251978E+18,169319.78,38.0160312841333,-122.013036851249,19.3372936248779,0.00445104587981368,0.00158605917069306,0.0134124724158919,0.0039,0.0135059246258818,15,gxSPS (21),gxInteger (24),RTK Integer (6),293.971541548211,1.1036886007605,-1.62760120862813,,-0.0830031855832101,0.142871896238983,-0.11425392417526,-0.0807870491134461,0.14610423775836,-0.111726770050511,0.0100922480989522,-0.0163704602741955,-9.79189581718263,0.1987,0.2617,-9.7864
0.790000000,0.310000000,0.340000000,1.26057251979E+18,169319.79,38.0160312852992,-122.013036850812,19.337251663208,0.00458596182318894,0.00167758099772381,0.0133718256792435,0.004,0.0134766464671297,15,gxSPS (21),gxInteger (24),RTK Integer (6),293.972171801785,1.10403237543758,-1.62851794110034,,-0.0944471903657034,0.0327509187102105,0.0650979477581873,-0.0956839517868475,0.0309397209370645,0.0641712730546522,0.00873995830887186,0.000736509813229869,-9.78635805397912,0.1973,0.2788,-9.7804
0.800000000,0.320000000,0.350000000,1.2605725198E+18,169319.8,38.0160312864713,-122.013036850324,19.337215423584,0.00472072494625402,0.00167748739490294,0.0133718374219829,0.004,0.0134766464671297,15,gxSPS (21),gxInteger (24),RTK Integer (6),293.971770731329,1.10397507965807,-1.62874712421839,,-0.0174629841267246,-0.000108513765042389,-0.0438041713955476,-0.0166157760587939,0.00114591559026165,-0.0441177502250734,-0.000155206087521786,0.000845201482186919,-9.80210003017443,0.1887,0.2794,-9.7963
0.810000000,0.330000000,0.360000000,1.26057251981E+18,169319.81,38.0160312876196,-122.013036852115,19.3371257781982,0.00485486881758188,0.00172837895774247,0.0132398151867174,0.004,0.0133521533843796,15,gxSPS (21),gxInteger (24),RTK Integer (6),293.972400984903,1.10449074167369,-1.6292054904545,,-0.0438650391612576,0.0639558191484491,0.0729814658196366,-0.045263665815335,0.0618794418741289,0.0739115555718762,-0.00244948741826623,-0.00799881961027726,-9.79720542394086,0.1864,0.2705,-9.7917
0.820000000,0.340000000,0.370000000,1.26057251982E+18,169319.82,38.016031288795,-122.013036851667,19.337085723877,0.00498901268890974,0.00167743390753985,0.0133718441318255,0.004,0.0134766464671297,15,gxSPS (21),gxInteger (24),RTK Integer (6),293.971541548211,1.1023707978317,-1.62943467357255,,-0.0224037643975499,-0.211274555105485,-0.092164585008291,-0.0206264806247096,-0.20855663742762,-0.0985487407625016,-0.000280648242869552,0.0112318828381185,-9.80209103538855,0.1883,0.2899,-9.796
0.830000000,0.350000000,0.380000000,1.26057251983E+18,169319.83,38.0160312899672,-122.013036851231,19.3370456695557,0.00512488443093551,0.00166761483330389,0.0135951852053492,0.0038,0.0136970799807842,15,gxSPS (21),gxInteger (24),RTK Integer (6),293.97280205536,1.10317293874489,-1.62983574402914,,-0.0394157579149892,0.0866630172947332,0.125564366488182,-0.0418259190445501,0.0830788802939694,0.127196630519043,-0.00697848249348107,0.0178792834892711,-9.81556381426987,0.182,0.297,-9.8094
0.840000000,0.360000000,0.390000000,1.26057251984E+18,169319.84,38.0160312911457,-122.01303685292,19.3369598388672,0.00526185183447947,0.00166750607176888,0.0135951985458328,0.0038,0.0136970799807842,15,gxSPS (21),gxInteger (24),RTK Integer (6),293.972343689124,1.10254268517024,-1.62868982843888,,0.116733897247185,-0.0497565281557159,-0.0386690685076086,0.117456348001819,-0.04870141258612,-0.0378152144786343,-0.00914688990514642,0.00405183077371446,-9.80911736483321,0.1796,0.2828,-9.8034
0.850000000,0.370000000,0.400000000,1.26057251985E+18,169319.85,38.0160312923449,-122.013036852424,19.3369235992432,0.00539959748130247,0.00152535976332715,0.0137678348912392,0.0037,0.0138520756567382,15,gxSPS (21),gxInteger (24),RTK Integer (6),293.972229097565,1.10168324847755,-1.62863253265936,,0.0036485546716452,-0.0847932850665667,-0.0188707455761562,0.00401070456591576,-0.084224795884231,-0.0211994384198405,-0.00941765864752023,0.0158398187828841,-9.81004476074633,0.1792,0.2946,-9.804
0.860000000,0.380000000,0.410000000,1.26057251986E+18,169319.86,38.0160312935505,-122.013036851952,19.3368873596191,0.00553937722713074,0.00142406647149674,0.0140318222154059,0.0034,0.0141039001698112,15,gxSPS (21),gxInteger (24),RTK Integer (6),293.973031238478,1.10128217802096,-1.62805957486423,,0.0576678831333414,-0.0349970812863824,0.078427748253548,0.0561498639228207,-0.0372422566835035,0.0784952179329228,-0.0108541649379297,0.0294396970200472,-9.82070562390213,0.1779,0.3084,-9.8143
0.870000000,0.390000000,0.420000000,1.26057251987E+18,169319.87,38.0160312947734,-122.013036853513,19.3368091583252,0.00568105121791968,0.00137332345081203,0.0141638265556823,0.0032,0.0142302494707577,15,gxSPS (21),gxInteger (24),RTK Integer (6),293.973031238478,1.10116758646193,-1.62863253265936,,-0.0520068935569402,-0.0026845062519156,0.00738223271750591,-0.0521391593569049,-0.00286478897565412,0.00630253574643906,-0.0124848819100833,0.0129599849812216,-9.8233101868216,0.1763,0.2921,-9.8174
0.880000000,0.400000000,0.430000000,1.26057251988E+18,169319.88,38.0160312960164,-122.013036852956,19.3367786407471,0.00582462124853403,0.00127185183727723,0.0144278339643903,0.0031,0.0144837840359486,15,gxSPS (21),gxInteger (24),RTK Integer (6),293.973088534258,1.10111029068242,-1.62805957486423,,0.0556222988323588,-0.00106406098336717,0.00182764328262967,0.0555769061276899,-0.00114591559026165,0.00286478897565412,-0.0111928077515369,0.020430924630527,-9.81383859600174,0.1774,0.2992,-9.8077
0.890000000,0.410000000,0.440000000,1.26057251989E+18,169319.89,38.0160312972485,-122.013036852448,19.336742401123,0.00597072847210533,0.00117054236194524,0.0146918287009784,0.0031,0.0147383852575511,15,gxSPS (21),gxInteger (24),RTK Integer (6),293.973776083612,1.10093840334388,-1.62828875798229,,-0.0210654160769485,-0.0170276924606822,0.0668178852569659,-0.0223453540101021,-0.0189076072393172,0.0658901464400447,-0.00977324746314534,0.0343266596733079,-9.79875249937816,0.1785,0.3127,-9.7922
0.900000000,0.420000000,0.450000000,1.2605725199E+18,169319.9,38.0160312971042,-122.013036854149,19.3364906311035,0.00611875413009057,0.0011196676427726,0.014823843778512,0.003,0.0148660687473185,15,gxSPS (21),gxInteger (24),RTK Integer (6),293.973260421596,1.10030814976923,-1.62777309596667,,0.0610178855744993,-0.0557110689315311,-0.0454520468193712,0.0618794418741289,-0.0544309905374282,-0.0458366236104659,-0.00621234309943719,0.0103409142708352,-9.81164230912874,0.1822,0.289,-9.8057
0.910000000,0.430000000,0.460000000,1.26057251991E+18,169319.91,38.0160312983802,-122.013036853574,19.336462020874,0.00626788573533419,0.00116034341370947,0.014915213815506,0.0029,0.0149602807460288,15,gxSPS (21),gxInteger (24),RTK Integer (6),293.973432308935,1.10070922022582,-1.62765850440764,,0.0117190203562867,0.0445230838841651,0.0134151187663683,0.0114591559026165,0.0441177502250734,0.0148969026734014,-0.000305577448028754,0.0109739491524525,-9.80777213382644,0.1881,0.2895,-9.8017
0.920000000,0.440000000,0.470000000,1.26057251992E+18,169319.92,38.0160312996617,-122.01303685301,19.33642578125,0.0064185981275871,0.00115000553745899,0.0151386091588301,0.0031,0.015182226450689,15,gxSPS (21),gxInteger (24),RTK Integer (6),293.972572872242,1.10007896665118,-1.62691365927397,,0.0779099967145042,-0.0610045817382507,-0.0909168742740402,0.0796411335231844,-0.058441695103344,-0.0911002894258009,0.000889492329905012,0.0297295427301049,-9.7824068333459,0.1887,0.3074,-9.7758
0.930000000,0.450000000,0.480000000,1.26057251993E+18,169319.93,38.0160312996075,-122.013036854622,19.336181640625,0.00657025013622887,0.00124137954298187,0.015097979230025,0.0032,0.0151489273547667,15,gxSPS (21),gxInteger (24),RTK Integer (6),293.972572872242,1.10019355821021,-1.62679906771495,,0.0178681389073067,0.0207970908910786,0.00537233398907757,0.0177616916490555,0.0206264806247096,0.00630253574643906,0.00248931065413768,-0.00227819195700962,-9.79703722066901,0.1906,0.2758,-9.7913
0.940000000,0.460000000,0.490000000,1.26057251994E+18,169319.94,38.0160313008931,-122.013036854071,19.3361492156982,0.0067215793188627,0.00133266320438494,0.0150573572974702,0.0032,0.015116216457831,15,gxSPS (21),gxInteger (24),RTK Integer (6),293.972229097565,1.10116758646193,-1.62639799725835,,0.0365419953517209,0.0998567636070342,-0.0367892922800098,0.0372422566835035,0.100840571943025,-0.0332315521175878,0.00745208671906267,-0.00481363263103951,-9.80076409395433,0.1958,0.2733,-9.795
0.950000000,0.470000000,0.500000000,1.26057251995E+18,169319.95,38.0160313022207,-122.013036853462,19.3361167907715,0.00687384956418638,0.00132273108493166,0.0152807193049593,0.0033,0.015337861650178,15,gxSPS (21),gxInteger (24),RTK Integer (6),293.972916646919,1.10007896665118,-1.62651258881738,,-0.00618103999073156,-0.101874653212985,0.066074403300143,-0.0074484513367007,-0.103705360918679,0.0630253574643906,0.00227012076859107,0.0190654185536244,-9.78342908526285,0.1901,0.2967,-9.7771
0.960000000,0.480000000,0.510000000,1.26057251996E+18,169319.96,38.0160313022236,-122.013036855017,19.3358783721924,0.00702595921530672,0.00142396237002837,0.0150167350369094,0.0035,0.0150840975865313,15,gxSPS (21),gxInteger (24),RTK Integer (6),293.971942618667,1.10002167087167,-1.62593963102225,,0.060636443180724,-0.000375274686051965,-0.0951739018896536,0.0624523996692597,0.00229183118052329,-0.093965078401455,0.00160932608699887,-0.0167557102262275,-9.78709900615317,0.1895,0.2609,-9.7818
0.970000000,0.490000000,0.520000000,1.26057251997E+18,169319.97,38.0160313034758,-122.013036854502,19.3358421325684,0.00717568951551879,0.0014340641817399,0.0147933586423993,0.0036,0.0148627050027914,15,gxSPS (21),gxInteger (24),RTK Integer (6),293.971885322888,1.10099569912339,-1.62565315212468,,0.0343149024954246,0.103090893717147,-0.00358579968371522,0.0343774677078494,0.103132403123548,0,0.00654416551472028,-0.0241542024766986,-9.79228886463224,0.1947,0.2536,-9.7871
0.980000000,0.500000000,0.530000000,1.26057251998E+18,169319.98,38.0160313048007,-122.013036853923,19.335807800293,0.00732479448699881,0.00147494605430417,0.0148847080635427,0.0037,0.0149576067604413,15,gxSPS (21),gxInteger (24),RTK Integer (6),293.97285935114,1.10168324847755,-1.62720013817154,,-0.153472913435359,0.0685318255567045,0.0950245189387018,-0.155271562480453,0.0658901464400447,0.093965078401455,-0.00028937361629372,0.007364075771506,-9.78265605174029,0.1878,0.2851,-9.7767
0.990000000,0.510000000,0.540000000,1.26057251999E+18,169319.99,38.0160313048293,-122.013036855425,19.3355751037598,0.00747342173171044,0.00139361177313527,0.0147019674270411,0.0038,0.0147678705303101,15,gxSPS (21),gxInteger (24),RTK Integer (6),293.972572872242,1.1019124315956,-1.62639799725835,,0.0860526304435214,0.0331566815415742,-0.0249552751505372,0.0865166270647543,0.0338045099127186,-0.0223453540101021,-0.00732255150600036,-0.0154440430451811,-9.7978792155126,0.1811,0.2626,-9.7927
1.000000000,0.520000000,0.550000000,1.26057252E+18,169320,38.0160313060487,-122.013036854901,19.3355388641357,0.00761951916255825,0.00136325425153076,0.0143872004867411,0.0037,0.0144516435051519,15,gxSPS (21),gxInteger (24),RTK Integer (6),293.973203125817,1.10300105140635,-1.62582503946322,,0.0572814036494148,0.111162794944333,0.0582304826065782,0.0561498639228207,0.109434938869987,0.0624523996692597,-0.00605823751833123,-0.0206681681653118,-9.80566071331162,0.1827,0.2575,-9.8006
1.010000000,0.530000000,0.560000000,1.26057252001E+18,169320.01,38.0160313073544,-122.013036854374,19.3354988098145,0.00776514276444449,0.00135309872903426,0.014610582597196,0.0038,0.0146731046476197,15,gxSPS (21),gxInteger (24),RTK Integer (6),293.973031238478,1.1023707978317,-1.62599692680176,,-0.0192783280520604,-0.0618833367186822,-0.0190839591028873,-0.0189076072393172,-0.0613064840789981,-0.0211994384198405,-0.00130599057691189,0.0133252220589299,-9.78780494405389,0.187,0.291,-9.7817
1.020000000,0.540000000,0.570000000,1.26057252002E+18,169320.02,38.016031307418,-122.013036855806,19.3352737426758,0.00791124053453664,0.00140369696386621,0.0144785922946132,0.0039,0.0145464772367745,15,gxSPS (21),gxInteger (24),RTK Integer (6),293.972458280683,1.10328753030391,-1.62565315212468,,0.0442524300124521,0.0982566564544653,-0.0529446826904155,0.045263665815335,0.0996946563527633,-0.0492743703812508,-0.00309948407289579,-0.00702637439019371,-9.79489848202938,0.1855,0.2708,-9.7894
1.030000000,0.550000000,0.580000000,1.26057252003E+18,169320.03,38.0160313086366,-122.013036855286,19.3352336883545,0.0080557606278666,0.00132263761344034,0.0142958256055225,0.0039,0.0143568798838745,15,gxSPS (21),gxInteger (24),RTK Integer (6),293.973260421596,1.10300105140635,-1.6257104479042,,-0.00766255944868049,-0.0247237624109144,0.0782441505361161,-0.00916732472209317,-0.0269290163711487,0.0773493023426611,-0.00215016551580938,-0.0117846779862099,-9.80008414648329,0.1865,0.2662,-9.7947
1.040000000,0.560000000,0.590000000,1.26057252004E+18,169320.04,38.0160313099148,-122.013036854752,19.3351955413818,0.00820027383009924,0.00140397205686643,0.0144785656217575,0.004,0.0145464772367745,15,gxSPS (21),gxInteger (24),RTK Integer (6),293.973546900494,1.1032302345244,-1.62593963102225,,-0.0218039384610795,0.0265855804760669,0.0283298411141526,-0.0223453540101021,0.025783100780887,0.0286478897565412,0.00406142975335233,0.0168115495925252,-9.79231233144596,0.1926,0.2946,-9.786
1.050000000,0.570000000,0.600000000,1.26057252005E+18,169320.05,38.0160313099419,-122.013036856115,19.3349990844727,0.00834621297568659,0.00144479294810783,0.0145699201554812,0.004,0.0146413797164065,15,gxSPS (21),gxInteger (24),RTK Integer (6),293.974291745627,1.10300105140635,-1.6248510112115,,0.116529107715913,-0.0122873938369722,0.0697668492987876,0.115164516821295,-0.0143239448782706,0.0716197243913529,-0.000327274593918736,0.00930493234732388,-9.79891254278379,0.1883,0.2871,-9.7929
1.060000000,0.580000000,0.610000000,1.26057252006E+18,169320.06,38.0160313111933,-122.013036855582,19.3349571228027,0.00849262663321958,0.00144477837818695,0.0145699216002669,0.0041,0.0146413797164065,15,gxSPS (21),gxInteger (24),RTK Integer (6),293.974234449848,1.10288645984732,-1.62559585634517,,-0.0769316184777268,-0.0128600589221531,-0.00732664417712476,-0.0767763445475303,-0.0126050714928781,-0.00916732472209317,-0.00249755585286376,0.00223645252413679,-9.7931702487241,0.186,0.28,-9.7874
1.070000000,0.590000000,0.620000000,1.26057252007E+18,169320.07,38.016031312442,-122.013036855066,19.3349170684814,0.00864015043329011,0.00143478905459149,0.014793288355495,0.0042,0.0148627050027914,15,gxSPS (21),gxInteger (24),RTK Integer (6),293.974692816084,1.10254268517024,-1.62536667322712,,0.0266113419181195,-0.0308701170163047,0.042787772449896,0.025783100780887,-0.0320856365273261,0.0423988768396809,0.00356696560890793,0.0178920329189087,-9.79292857483983,0.192,0.2956,-9.7866
1.080000000,0.600000000,0.630000000,1.26057252008E+18,169320.08,38.016031312554,-122.013036856354,19.3347263336182,0.00878924829505377,0.00147542236420696,0.014884660857648,0.0042,0.0149576067604413,15,gxSPS (21),gxInteger (24),RTK Integer (6),293.974692816084,1.10185513581609,-1.62639799725835,,-0.100867748417765,-0.0573865301675737,-0.000443323109996706,-0.100840571943025,-0.0572957795130823,-0.00401070456591576,0.00288410348909104,0.0185678038389147,-9.79814071181914,0.1913,0.2966,-9.7918
1.090000000,0.610000000,0.640000000,1.26057252009E+18,169320.09,38.0160313138417,-122.01303685583,19.3346824645996,0.00893914444110913,0.00160748791756272,0.0149353936203533,0.0043,0.0150216510410807,15,gxSPS (21),gxInteger (24),RTK Integer (6),293.974921999202,1.10048003710777,-1.62599692680176,,0.0421558865452726,-0.134773406304803,0.016775743777546,0.0418259190445501,-0.135218039650874,0.0137509870831398,0.00483749631552555,0.00210484070940598,-9.79200080669293,0.1929,0.2799,-9.7861
1.100000000,0.620000000,0.650000000,1.2605725201E+18,169320.1,38.016031315103,-122.013036855316,19.3346405029297,0.00908936080826231,0.00160742817597539,0.0149354000501855,0.0043,0.0150216510410807,15,gxSPS (21),gxInteger (24),RTK Integer (6),293.974692816084,1.10151136113901,-1.62651258881738,,-0.048596716334824,0.107054673594744,-0.0238912574802363,-0.0481284547909892,0.107716065484595,-0.0217723962149713,0.00868180552819403,0.00170043520795621,-9.79617164328866,0.197,0.2797,-9.7902
1.110000000,0.630000000,0.660000000,1.26057252011E+18,169320.11,38.0160313152899,-122.013036856555,19.3344554901123,0.00924038365228063,0.00178012760739202,0.0150775046244861,0.0044,0.015182226450689,15,gxSPS (21),gxInteger (24),RTK Integer (6),293.974921999202,1.10174054425706,-1.62645529303787,,0.00959079966536235,0.0287141157705187,0.0219318667809225,0.00916732472209317,0.0280749319614103,0.0229183118052329,0.00532423407321189,0.0188891082067238,-9.79709603117795,0.1937,0.2969,-9.7907
1.120000000,0.640000000,0.670000000,1.26057252012E+18,169320.12,38.0160313165954,-122.013036856045,19.3344135284424,0.00939220215227367,0.00178021807238772,0.0150774939434491,0.0043,0.015182226450689,15,gxSPS (21),gxInteger (24),RTK Integer (6),293.975265773879,1.10133947380047,-1.62697095505349,,-0.0515245140727958,-0.0386559713906889,0.0324733224479437,-0.0521391593569049,-0.0395340878640268,0.0303667631419336,0.00308069554637361,-0.000520738124050679,-9.8081096291868,0.1916,0.2779,-9.8023
1.130000000,0.650000000,0.680000000,1.26057252013E+18,169320.13,38.0160313178676,-122.013036855545,19.3343696594238,0.00954339926123305,0.00183112034511767,0.0149454674828757,0.0041,0.015057224179775,15,gxSPS (21),gxInteger (24),RTK Integer (6),293.975896027454,1.1023707978317,-1.62588233524274,,0.110559414096133,0.104862855921376,0.0573846499222332,0.109434938869987,0.103132403123548,0.0624523996692597,0.00447162849554239,-0.0121816172691419,-9.82021080337583,0.1934,0.2664,-9.8147
1.140000000,0.660000000,0.690000000,1.26057252014E+18,169320.14,38.0160313181064,-122.013036856735,19.3341941833496,0.00969445327697287,0.00187148491013913,0.0150368728208734,0.004,0.0151528875136061,15,gxSPS (21),gxInteger (24),RTK Integer (6),293.974864703423,1.10116758646193,-1.62599692680176,,-0.00660244331238317,-0.114181777125321,-0.104983913135449,-0.00458366236104659,-0.11115381225538,-0.108289023279726,0.000329351306203346,0.0146796533457638,-9.80708218887276,0.1888,0.2929,-9.8009
1.150000000,0.670000000,0.700000000,1.26057252015E+18,169320.15,38.0160313194086,-122.013036856229,19.3341579437256,0.00984598200759973,0.00187124431993446,0.0150369027627073,0.0039,0.0151528875136061,15,gxSPS (21),gxInteger (24),RTK Integer (6),293.97394797095,1.10093840334388,-1.62651258881738,,-0.049960163391245,-0.0176230746773369,-0.0948528746266518,-0.0481284547909892,-0.0148969026734014,-0.0962569095819783,-0.00220471167567876,-0.00167179722077521,-9.81607656216782,0.1864,0.2769,-9.8104
1.160000000,0.680000000,0.710000000,1.26057252016E+18,169320.16,38.016031320671,-122.013036855752,19.3341178894043,0.009996408876002,0.00188144198788733,0.0148135132917959,0.0036,0.0149325148585227,15,gxSPS (21),gxInteger (24),RTK Integer (6),293.974291745627,1.10145406535949,-1.62473641965248,,0.178193602568026,0.0542058734353827,0.0282872335306491,0.177616916490555,0.0532850749471666,0.0332315521175878,0.000883109443400837,-0.0222577040272637,-9.82254911439638,0.1897,0.2562,-9.8174
1.170000000,0.690000000,0.720000000,1.26057252017E+18,169320.17,38.0160313173621,-122.013036857158,19.3341426849365,0.0101452516526977,0.00184077987359568,0.0147221441868012,0.0036,0.0148367786261034,15,gxSPS (21),gxInteger (24),RTK Integer (6),293.974177154068,1.10259998094976,-1.62462182809345,,0.0284169438609834,0.110292742981597,-0.0122751069540751,0.0286478897565412,0.110580854460249,-0.00859436692696235,-0.00151874312354103,0.00670693541780437,-9.80721837884916,0.1872,0.2847,-9.8013
1.180000000,0.700000000,0.730000000,1.26057252018E+18,169320.18,38.0160313186363,-122.013036856653,19.3341102600098,0.010293769288786,0.0017495693961842,0.0147627574296923,0.0034,0.0148660687473185,15,gxSPS (21),gxInteger (24),RTK Integer (6),293.974807407643,1.10156865691852,-1.62422075763686,,0.042984270465132,-0.097441630416148,0.0598397070592897,0.0418259190445501,-0.0991216985576324,0.0578687373082132,-0.0048704219560185,-0.000317229297955191,-9.81385340721755,0.1838,0.2778,-9.8082
1.190000000,0.710000000,0.740000000,1.26057252019E+18,169320.19,38.0160313198874,-122.013036856182,19.3340759277344,0.0104413268773882,0.00175948582027266,0.0145394019701038,0.0033,0.0146454771175268,15,gxSPS (21),gxInteger (24),RTK Integer (6),293.974062562509,1.10093840334388,-1.62433534919588,,-0.0118081660078423,-0.0623939176099443,-0.0776912693698638,-0.0103132403123548,-0.0601605684887364,-0.0796411335231844,-0.000903485250781183,-0.0181034412234938,-9.81602523372522,0.1877,0.2601,-9.8108
1.200000000,0.720000000,0.750000000,1.2605725202E+18,169320.2,38.0160313167396,-122.013036857509,19.3341007232666,0.0105873036942068,0.0017187668275521,0.014448039333851,0.0032,0.0145499140890934,15,gxSPS (21),gxInteger (24),RTK Integer (6),293.973718787832,1.10196972737511,-1.62433534919588,,0.019366696852276,0.100447031169729,-0.0358992556631281,0.0200535228295788,0.101413529738156,-0.0326585943224569,-0.000632213911590185,0.0104735700233744,-9.80313631521242,0.1879,0.2883,-9.7971
1.210000000,0.730000000,0.760000000,1.26057252021E+18,169320.21,38.0160313180079,-122.013036856997,19.3340682983398,0.0107334253867087,0.00166783585020651,0.0145800659661322,0.0032,0.0146751490622753,15,gxSPS (21),gxInteger (24),RTK Integer (6),293.972973942699,1.10288645984732,-1.62508019432955,,-0.0748002424022939,0.0952675770815112,-0.0752182877764719,-0.0733385977767454,0.09740282517224,-0.0739115555718762,-0.00447805160596068,0.00906085512477095,-9.80252865580908,0.1842,0.287,-9.7966
1.220000000,0.740000000,0.770000000,1.26057252022E+18,169320.22,38.0160313192193,-122.013036856527,19.3340358734131,0.0108790765210908,0.00167800586121183,0.0143566812435792,0.0031,0.0144544110914281,15,gxSPS (21),gxInteger (24),RTK Integer (6),293.973203125817,1.10219891049316,-1.62548126478615,,-0.0368144478353205,-0.0641493355473851,0.0225943370890996,-0.0372422566835035,-0.064744230849783,0.0200535228295788,-0.00252022561899035,-0.0231083383989188,-9.80565542037651,0.1861,0.255,-9.8006
1.230000000,0.750000000,0.780000000,1.26057252023E+18,169320.23,38.0160313162159,-122.013036857777,19.3340587615967,0.0110226663896645,0.00159668729762918,0.0141739405132655,0.0032,0.0142635900109334,15,gxSPS (21),gxInteger (24),RTK Integer (6),293.972973942699,1.10185513581609,-1.62708554661251,,-0.148930441762262,-0.0409531140917331,-0.0263566814000694,-0.148396068938883,-0.0401070456591576,-0.0303667631419336,-0.00445254276147908,-0.00346705625341109,-9.7947756056167,0.1839,0.2746,-9.7892
1.240000000,0.760000000,0.790000000,1.26057252024E+18,169320.24,38.0160313174647,-122.013036857254,19.3340263366699,0.011166084827075,0.00145472823607011,0.0143465593700783,0.0033,0.0144201248260894,15,gxSPS (21),gxInteger (24),RTK Integer (6),293.973604196273,1.10208431893414,-1.62691365927397,,0.0178660566564717,0.0264979529732602,0.0648324672815891,0.0166157760587939,0.0246371851906254,0.0658901464400447,-0.00637922073045438,0.0165883300996434,-9.79410747811394,0.182,0.2946,-9.788
1.250000000,0.770000000,0.800000000,1.26057252025E+18,169320.25,38.0160313186657,-122.013036856782,19.3339958190918,0.0113091766211937,0.00146505021073221,0.0141231592740447,0.0032,0.0141989436226784,15,gxSPS (21),gxInteger (24),RTK Integer (6),293.974463632966,1.10357400920148,-1.62685636349446,,0.010197121637496,0.154834096786947,0.0831193739163218,0.00859436692696235,0.152406773504799,0.087662542655016,-0.00499241242477208,-0.0217505487565138,-9.80235502159797,0.1838,0.2565,-9.7973
1.260000000,0.780000000,0.810000000,1.26057252026E+18,169320.26,38.0160313158063,-122.013036857949,19.3340148925781,0.0114502191960721,0.00138386796494069,0.0139404056417168,0.0033,0.0140089257261219,15,gxSPS (21),gxInteger (24),RTK Integer (6),293.974807407643,1.1027718682883,-1.62679906771495,,0.0166483303043456,-0.0839340195385967,0.0313017961260466,0.0160428182636631,-0.0847977536793618,0.029220847551672,-0.00449784269714582,-0.00295355464473429,-9.78898747705431,0.1839,0.2749,-9.7834
1.270000000,0.790000000,0.820000000,1.26057252027E+18,169320.27,38.0160313170557,-122.013036857402,19.3339786529541,0.011592051470331,0.0013228806422845,0.0142958031186173,0.0035,0.0143568798838745,15,gxSPS (21),gxInteger (24),RTK Integer (6),293.974234449848,1.10317293874489,-1.62817416642326,,-0.134104609441859,0.0406398470001443,-0.0599156340861844,-0.132926208470351,0.0423988768396809,-0.0613064840789981,-0.00651382361230157,0.0317026298380925,-9.78623964060575,0.1819,0.3097,-9.7797
1.280000000,0.800000000,0.830000000,1.26057252028E+18,169320.28,38.0160313182408,-122.013036856912,19.3339462280273,0.0117351432604776,0.00128246112996045,0.0142044110560819,0.0035,0.0142621877704649,15,gxSPS (21),gxInteger (24),RTK Integer (6),293.975093886541,1.10305834718586,-1.62754391284862,,0.0624034659152218,-0.00726281899364406,0.0861457428518031,0.0607335262838673,-0.009740282517224,0.0870895848598851,-0.00435252581604428,-0.00703830823638418,-9.79448198567623,0.1842,0.2711,-9.789
1.290000000,0.810000000,0.840000000,1.26057252029E+18,169320.29,38.0160313154319,-122.013036858008,19.3339805603027,0.01187729190676,0.00124198242409055,0.0141130251774115,0.0037,0.0141675685987399,15,gxSPS (21),gxInteger (24),RTK Integer (6),293.975724140115,1.10334482608343,-1.62868982843888,,-0.0968455862923116,0.0251428192331684,0.0596263077740453,-0.0979757829673708,0.0234912696003638,0.058441695103344,0.000794373060939879,0.00276035083814846,-9.78435993202594,0.1892,0.2808,-9.7785
1.300000000,0.820000000,0.850000000,1.2605725203E+18,169320.3,38.0160313167135,-122.013036857433,19.3339385986328,0.0120211843864983,0.00122174958030229,0.014559784612522,0.0039,0.0146109547942631,15,gxSPS (21),gxInteger (24),RTK Integer (6),293.975609548556,1.10403237543758,-1.62828875798229,,0.0392662059912243,0.0724106438367638,-0.014281402080156,0.0395340878640268,0.0727656399816146,-0.0114591559026165,-0.0043124665910389,0.0455077320719736,-9.77857314279305,0.1841,0.3233,-9.7716
1.310000000,0.830000000,0.860000000,1.26057252031E+18,169320.31,38.0160313179004,-122.013036856909,19.3339061737061,0.0121684062003838,0.00121161770510598,0.0147831655113739,0.004,0.014832734070292,15,gxSPS (21),gxInteger (24),RTK Integer (6),293.975494956997,1.10397507965807,-1.62868982843888,,-0.0392515186817906,-0.00101241335919482,-0.014693802100187,-0.038961130068896,-0.000572957795130823,-0.0154698604685322,-0.0057317828449211,0.0171896039644925,-9.79045002664234,0.1829,0.2954,-9.7843
1.320000000,0.840000000,0.870000000,1.26057252032E+18,169320.32,38.0160313153055,-122.013036857893,19.3339309692383,0.0123168965324838,0.00112040883356163,0.0148237877766,0.0041,0.0148660687473185,15,gxSPS (21),gxInteger (24),RTK Integer (6),293.976125210572,1.10512099524833,-1.62863253265936,,0.0190037202638135,0.107875900748264,0.0642145671852819,0.0177616916490555,0.105997192099202,0.0676090198254372,0.00207202148778335,0.0193492169948315,-9.78536221682819,0.1908,0.2974,-9.779
1.330000000,0.850000000,0.880000000,1.26057252033E+18,169320.33,38.0160313166625,-122.013036857282,19.3338851928711,0.0124682478328853,0.00114096672584956,0.0153619072686468,0.0044,0.0154042202009709,15,gxSPS (21),gxInteger (24),RTK Integer (6),293.976583576808,1.10317293874489,-1.62771580018716,,0.0942075340470814,-0.190789263670702,0.0414459925345918,0.0933921206063242,-0.191940861368826,0.0378152144786343,0.00329699065146444,0.055103966142751,-9.77538430051566,0.1915,0.3327,-9.768
1.340000000,0.860000000,0.890000000,1.26057252034E+18,169320.34,38.0160313179187,-122.013036856718,19.3338451385498,0.0126238706302386,0.00117142615600326,0.0156766629344715,0.0045,0.0157203689524133,15,gxSPS (21),gxInteger (24),RTK Integer (6),293.97629709791,1.10271457250878,-1.62828875798229,,-0.0539460945015008,-0.0439801667665671,-0.0338287960700129,-0.0532850749471666,-0.0429718346348117,-0.0360963410932419,0.00210889574248577,0.032051136017404,-9.78401327305103,0.1904,0.31,-9.7773
1.350000000,0.870000000,0.900000000,1.26057252035E+18,169320.35,38.0160313155576,-122.013036857605,19.3338623046875,0.0127813826704284,0.00130390520978366,0.0157273593207474,0.0047,0.0157813180691601,15,gxSPS (21),gxInteger (24),RTK Integer (6),293.978015971296,1.10271457250878,-1.62805957486423,,0.0336938600106224,-0.00252936625020401,0.172558549106202,0.0303667631419336,-0.0074484513367007,0.173033254129509,0.008129348645385,0.0170684291825846,-9.78820464040346,0.1965,0.2951,-9.7818
1.360000000,0.880000000,0.910000000,1.26057252036E+18,169320.36,38.016031316965,-122.013036856989,19.3338146209717,0.012941245163401,0.00137492816627145,0.0161334922610572,0.0048,0.0161919733201361,15,gxSPS (21),gxInteger (24),RTK Integer (6),293.977443013501,1.10391778387856,-1.62800227908472,,0.00627529894696649,0.123226598223696,-0.0609534313100146,0.0074484513367007,0.124904799338519,-0.0572957795130823,0.00654683349321636,0.0353191662787296,-9.78699579061239,0.1951,0.3133,-9.7801
1.370000000,0.890000000,0.920000000,1.26057252037E+18,169320.37,38.0160313183113,-122.013036856366,19.3337669372559,0.0131042734434178,0.00136483300552012,0.0163568710598037,0.0049,0.0164137137784232,15,gxSPS (21),gxInteger (24),RTK Integer (6),293.977443013501,1.10397507965807,-1.6283460537618,,-0.0349817470800009,0.00854205253512432,-0.00128865090217182,-0.0349504255029802,0.00859436692696235,-0.00171887338539247,0.000329035860695964,0.0268961118626928,-9.79254203467629,0.189,0.3051,-9.786
1.380000000,0.900000000,0.930000000,1.26057252038E+18,169320.38,38.0160313161425,-122.013036857172,19.3337802886963,0.0132679423268629,0.00132414651356389,0.0162655044806676,0.0048,0.0163193137110603,15,gxSPS (21),gxInteger (24),RTK Integer (6),293.977271126162,1.10426155855564,-1.62628340569933,,0.219000727125561,0.0269217736415651,-0.0250511486976988,0.219442835535105,0.0275019741662795,-0.0200535228295788,0.000620460194998784,0.00170334679929007,-9.80082751626815,0.1895,0.2798,-9.795
1.390000000,0.910000000,0.940000000,1.26057252039E+18,169320.39,38.0160313175451,-122.01303685654,19.3337345123291,0.0134317731601938,0.00127316729850741,0.0163975316749202,0.0047,0.0164468842033985,15,gxSPS (21),gxInteger (24),RTK Integer (6),293.976411689469,1.10300105140635,-1.62668447615592,,-0.0360267959340139,-0.11994630029038,-0.0853334431902053,-0.0343774677078494,-0.117456348001819,-0.0893814160404084,-0.00324654441670202,0.00911995595454262,-9.81547005070836,0.1857,0.2877,-9.8095
1.400000000,0.920000000,0.950000000,1.2605725204E+18,169320.4,38.0160313189386,-122.013036855908,19.3336887359619,0.0135968808211721,0.00122238247754457,0.0165295426760268,0.0045,0.0165746794840805,15,gxSPS (21),gxInteger (24),RTK Integer (6),293.976239802131,1.10305834718586,-1.62593963102225,,0.0746652536710689,0.00574725288747908,-0.021092826425919,0.0750574711621378,0.00630253574643906,-0.019480565034448,-0.00799490131668792,0.0108901013821298,-9.81742650073046,0.181,0.2894,-9.8115
1.410000000,0.930000000,0.960000000,1.26057252041E+18,169320.41,38.0160313170759,-122.013036858832,19.3335361480713,0.0137608750558653,0.00128352526636013,0.0161741325235889,0.0044,0.016224980739588,15,gxSPS (21),gxInteger (24),RTK Integer (6),293.977328421942,1.10351671342197,-1.62593963102225,,0.0117281690091761,0.0556659639334006,0.103106649129807,0.009740282517224,0.0527121171520357,0.104851276508941,-0.00166914153874426,-0.0238157893455784,-9.81726487939204,0.1874,0.2547,-9.8122
1.420000000,0.940000000,0.970000000,1.26057252042E+18,169320.42,38.0160313184184,-122.013036858236,19.33349609375,0.0139220192712516,0.00129312639988142,0.0159507938396159,0.0042,0.0160031246948838,15,gxSPS (21),gxInteger (24),RTK Integer (6),293.975552252777,1.10374589654002,-1.62519478588858,,0.0773115024793728,0.0287209839092477,-0.181172511701192,0.0807870491134461,0.0338045099127186,-0.178762832080817,0.00126604424228874,-0.0198762317270411,-9.81342831137744,0.1903,0.2584,-9.8082
1.430000000,0.950000000,0.980000000,1.26057252043E+18,169320.43,38.0160313198541,-122.013036857578,19.3334522247314,0.0140820503655828,0.00129334971086844,0.0159507757342832,0.004,0.0160031246948838,15,gxSPS (21),gxInteger (24),RTK Integer (6),293.97635439369,1.1040896712171,-1.62370509562124,,0.148694501201344,0.0354099173906055,0.0735251069574661,0.147250153348622,0.0332315521175878,0.0773493023426611,-0.00222792576153069,-0.00106024125860438,-9.82559573879545,0.1871,0.2773,-9.8199
1.440000000,0.960000000,0.990000000,1.26057252044E+18,169320.44,38.0160313180695,-122.013036860405,19.3333129882813,0.0142398636534339,0.00131347100065278,0.0155040250880358,0.0037,0.0155595629758679,15,gxSPS (21),gxInteger (24),RTK Integer (6),293.976067914792,1.10414696699661,-1.62370509562124,,0.0131534961087742,0.0174668391492917,-0.0311333324584666,0.0137509870831398,0.0183346494441863,-0.0303667631419336,0.000731318955827065,-0.034165212259237,-9.83241889686581,0.1902,0.2444,-9.8276
1.450000000,0.970000000,1.000000000,1.26057252045E+18,169320.45,38.0160313193492,-122.013036859862,19.3332786560059,0.0143937119104178,0.00137426210095109,0.015148643625021,0.0035,0.0152108513897152,15,gxSPS (21),gxInteger (24),RTK Integer (6),293.975896027454,1.10471992479174,-1.62296025048757,,0.0763755639057996,0.0601898849356092,-0.0215239089550371,0.0767763445475303,0.0607335262838673,-0.0183346494441863,0.00581436838368529,-0.027673297178808,-9.812687867335,0.195,0.2502,-9.8076
1.460000000,0.980000000,1.010000000,1.26057252046E+18,169320.46,38.0160313207222,-122.013036859257,19.3332386016846,0.0145458239058026,0.00137411061444612,0.0151486573668846,0.0034,0.0152108513897152,15,gxSPS (21),gxInteger (24),RTK Integer (6),293.975323069659,1.10489181213028,-1.62244458847195,,0.0516213702186262,0.016181010059371,-0.0570635306463085,0.0527121171520357,0.0177616916490555,-0.0555769061276899,0.00500793876387998,-0.00234130796720722,-9.81148718231983,0.1942,0.2754,-9.8057
1.470000000,0.990000000,1.020000000,1.26057252047E+18,169320.47,38.0160313190064,-122.013036862012,19.3331089019775,0.0146955597680309,0.00148571884367652,0.0146612632306205,0.0032,0.0147363496158309,15,gxSPS (21),gxInteger (24),RTK Integer (6),293.975437661218,1.10391778387856,-1.6222154053539,,0.0339671091311437,-0.0868762607005406,0.00811254967972759,0.0338045099127186,-0.0870895848598851,0.00630253574643906,0.00442766321211016,-0.0367790700922762,-9.82430421586188,0.1937,0.2413,-9.8195
1.480000000,1.000000000,1.030000000,1.26057252048E+18,169320.48,38.016031320217,-122.013036861537,19.3330783843994,0.0148411875376542,0.00154694555728798,0.0143058365516592,0.0032,0.0143892320851392,15,gxSPS (21),gxInteger (24),RTK Integer (6),293.976984647264,1.10494910790979,-1.62238729269244,,-0.0125526661570544,0.108027427070424,0.151397949353362,-0.0154698604685322,0.103705360918679,0.154125646890191,0.00716061579206675,-0.0356057275960095,-9.80308187498931,0.1962,0.2419,-9.7982
1.490000000,1.010000000,1.040000000,1.26057252049E+18,169320.49,38.0160313215351,-122.013036860971,19.333044052124,0.0149850762906189,0.00154657360501482,0.0143058767674083,0.0031,0.0143892320851392,15,gxSPS (21),gxInteger (24),RTK Integer (6),293.975494956997,1.10397507965807,-1.62204351801536,,0.0342940135369018,-0.0943134797943693,-0.15335227854438,0.0372422566835035,-0.0899543738355393,-0.155271562480453,-0.000231016905835518,-0.00697625282260622,-9.80084381512775,0.1886,0.2704,-9.7953
1.500000000,1.020000000,1.050000000,1.2605725205E+18,169320.5,38.0160313198729,-122.013036863645,19.3329200744629,0.015126762699873,0.00156684841184381,0.0138591120225757,0.003,0.0139474011916199,15,gxSPS (21),gxInteger (24),RTK Integer (6),293.975781435895,1.10420426277612,-1.62416346185734,,-0.199444123485938,0.0293671561660843,0.0288095685979669,-0.199962270500657,0.0286478897565412,0.025783100780887,-0.00727699464918591,-0.029300676463792,-9.81669541881114,0.1819,0.2489,-9.8119
1.510000000,1.030000000,1.060000000,1.26057252051E+18,169320.51,38.0160313210217,-122.013036863186,19.3328895568848,0.0152646589328493,0.00153640981538523,0.0135443510320424,0.003,0.0136312141792285,15,gxSPS (21),gxInteger (24),RTK Integer (6),293.976182506351,1.10489181213028,-1.62416346185734,,-0.00041271911751213,0.0744458962140345,0.0380273106822485,-0.00114591559026165,0.0733385977767454,0.0401070456591576,-0.00251987735810741,-0.0285480643401534,-9.7972992292897,0.1864,0.2491,-9.7924
1.520000000,1.040000000,1.070000000,1.26057252052E+18,169320.52,38.0160313222694,-122.013036862687,19.3328552246094,0.0154009676947095,0.00153650462580482,0.0135443402768419,0.0031,0.0136312141792285,15,gxSPS (21),gxInteger (24),RTK Integer (6),293.976583576808,1.10351671342197,-1.62433534919588,,-0.0146863122550518,-0.135842451708675,0.0408266183011293,-0.0154698604685322,-0.136936913036267,0.0366692988883727,-0.00366119480291793,-0.00028464980499443,-9.79087092166101,0.1849,0.2772,-9.7852
1.530000000,1.050000000,1.080000000,1.26057252053E+18,169320.53,38.0160313205378,-122.013036865291,19.3327579498291,0.0155363266870431,0.00145535223035565,0.0133615848568049,0.0031,0.0134406101051998,15,gxSPS (21),gxInteger (24),RTK Integer (6),293.977099238824,1.10334482608343,-1.62576774368371,,-0.130681729736237,-0.00644139706449938,0.0583093046412922,-0.131780292880089,-0.00802140913183153,0.0555769061276899,-0.00693592846350832,-0.0137362682523247,-9.80143884222265,0.1818,0.2643,-9.7962
1.540000000,1.060000000,1.090000000,1.26057252054E+18,169320.54,38.0160313216646,-122.013036864837,19.3327236175537,0.0156696280219216,0.00146543559317274,0.0131382075840756,0.0032,0.0132196822957286,15,gxSPS (21),gxInteger (24),RTK Integer (6),293.977041943044,1.10317293874489,-1.62634070147884,,-0.0574430448761927,-0.0139893661610165,-0.00709601073930992,-0.0572957795130823,-0.0137509870831398,-0.00859436692696235,-0.00164544230091854,-0.0139480802258604,-9.78792879947426,0.1868,0.2638,-9.7826
1.550000000,1.070000000,1.100000000,1.26057252055E+18,169320.55,38.0160313228413,-122.013036864371,19.332691192627,0.0158029325349545,0.00145539231510367,0.0133615804906881,0.0034,0.0134406101051998,15,gxSPS (21),gxInteger (24),RTK Integer (6),293.977271126162,1.10397507965807,-1.62737202551008,,-0.100436020771874,0.0819617810770608,0.0219649423851847,-0.100840571943025,0.0813600069085769,0.0223453540101021,0.00117095195674866,0.0145142271367987,-9.77999403916394,0.1896,0.2922,-9.7738
1.560000000,1.080000000,1.110000000,1.26057252056E+18,169320.56,38.0160313212305,-122.013036866857,19.332592010498,0.0159373353033357,0.00145541903826173,0.0133615775798768,0.0036,0.0134406101051998,15,gxSPS (21),gxInteger (24),RTK Integer (6),293.977385717721,1.10271457250878,-1.62846064532083,,-0.099939816501007,-0.12163250799612,0.0179947903555077,-0.100267614147894,-0.122040010362865,0.0126050714928781,-0.00306463218286238,0.0133042616995585,-9.78778414885873,0.1853,0.2914,-9.7817
1.570000000,1.090000000,1.120000000,1.26057252057E+18,169320.57,38.0160313224003,-122.013036866376,19.3325519561768,0.0160723707394093,0.00140495592148801,0.0134935576798217,0.0038,0.013566502865514,15,gxSPS (21),gxInteger (24),RTK Integer (6),293.978531633311,1.10426155855564,-1.62903360311596,,-0.0568490956532589,0.160233478973335,0.112917028996283,-0.0590146528984748,0.156990435865846,0.116310432411557,-0.00334438036627885,0.0107775602425064,-9.77820920206329,0.1851,0.2887,-9.7722
1.580000000,1.100000000,1.130000000,1.26057252058E+18,169320.58,38.0160313235806,-122.013036865901,19.3325157165527,0.0162096167382279,0.00143514541996473,0.0138083437683002,0.004,0.0138827230758234,15,gxSPS (21),gxInteger (24),RTK Integer (6),293.977041943044,1.10340212186294,-1.62983574402914,,-0.0762040307803087,-0.0839273961575553,-0.148067233150083,-0.0733385977767454,-0.0796411335231844,-0.151833815709668,-0.0019371565651839,0.0368410552526422,-9.77507701269265,0.1863,0.3148,-9.7683
1.590000000,1.110000000,1.140000000,1.26057252059E+18,169320.59,38.016031322144,-122.013036868236,19.3324108123779,0.0163500282854121,0.00146579873611571,0.0141230816065475,0.0043,0.0141989436226784,15,gxSPS (21),gxInteger (24),RTK Integer (6),293.97750030928,1.10340212186294,-1.62954926513157,,0.0353268403359715,0.00829022970836561,0.0489604459439209,0.0343774677078494,0.00687549354156988,0.0498473281763816,-0.00190371345105519,0.0387924265608744,-9.7785336126393,0.1864,0.3168,-9.7717
1.600000000,1.120000000,1.150000000,1.2605725206E+18,169320.6,38.0160313234023,-122.013036867712,19.3323631286621,0.0164931200795308,0.00145577553102708,0.0143464531366907,0.0045,0.0144201248260894,15,gxSPS (21),gxInteger (24),RTK Integer (6),293.977786788178,1.10363130498099,-1.6305232933833,,-0.0963179737472314,0.0253771490373745,0.0275046209574087,-0.0968298673771091,0.0246371851906254,0.0263560585760179,0.000702691729634469,0.0249886771548477,-9.77619577198812,0.189,0.3031,-9.7697
1.610000000,1.130000000,1.160000000,1.26057252061E+18,169320.61,38.0160313245935,-122.013036867226,19.3323211669922,0.0166393774923788,0.00152695819789141,0.0147525726116462,0.0048,0.0148313856399192,15,gxSPS (21),gxInteger (24),RTK Integer (6),293.977786788178,1.10288645984732,-1.62983574402914,,0.0749709689228956,-0.0688900815017864,-0.00521571416122784,0.0750574711621378,-0.0687549354156988,-0.00572957795130823,0.0033424533474922,0.0400791677189928,-9.77036623767608,0.1914,0.3179,-9.7634
1.620000000,1.140000000,1.170000000,1.26057252062E+18,169320.62,38.0160313233539,-122.013036869416,19.3322124481201,0.0167897477930356,0.00159804991257443,0.0151587016751739,0.0051,0.0152427031723379,15,gxSPS (21),gxInteger (24),RTK Integer (6),293.977443013501,1.10271457250878,-1.63075247650135,,-0.0824969361040076,-0.0100277939392164,-0.0285112211871313,-0.0819329647037077,-0.00916732472209317,-0.0303667631419336,0.00199786534477431,0.0487168178403258,-9.77419295544106,0.1901,0.3268,-9.767
1.630000000,1.150000000,1.180000000,1.26057252063E+18,169320.63,38.0160313247084,-122.01303686886,19.3321590423584,0.0169437594352185,0.00162882454885402,0.0154734265949417,0.0051,0.0155589202710214,15,gxSPS (21),gxInteger (24),RTK Integer (6),293.978302450193,1.10340212186294,-1.63035140604476,,0.0399744021340986,0.0734306001901509,0.0819874866860769,0.0383881722737652,0.0710467665962221,0.0847977536793618,0.00465861384954649,0.0271016012811746,-9.79093907092292,0.1932,0.3056,-9.7843
1.640000000,1.160000000,1.190000000,1.26057252064E+18,169320.64,38.0160313259794,-122.013036868337,19.3321113586426,0.0171004541406228,0.00161837171183015,0.0156968427717917,0.0053,0.0157800506970035,15,gxSPS (21),gxInteger (24),RTK Integer (6),293.976984647264,1.10449074167369,-1.63046599760378,,-0.0117672987695253,0.1102228724866,-0.134769343402999,-0.00916732472209317,0.114018601231034,-0.131780292880089,0.00241404843862883,0.0295436484687057,-9.78876830685073,0.1911,0.308,-9.7821
1.650000000,1.170000000,1.200000000,1.26057252065E+18,169320.65,38.0160313233355,-122.013036869814,19.3321971893311,0.0172599885186042,0.00155795820922045,0.0160521888295124,0.0053,0.0161276160668587,15,gxSPS (21),gxInteger (24),RTK Integer (6),293.978474337532,1.10529288258687,-1.62972115247011,,0.0866670058891269,0.0784116720073122,0.155472918675254,0.0836518380891002,0.0739115555718762,0.159282267046369,-0.00403699659303985,0.0397525726404287,-9.78943332607291,0.1848,0.3181,-9.7826
