Time from start of file (s),Time from initialisation (s),Time from start of region (s),Time (),Seconds from midnight Sunday (),Latitude (deg),Longitude (deg),Altitude (m),Distance horizontal (m),Velocity forward (m/s),Velocity lateral (m/s),Velocity down (m/s),Speed horizontal (m/s),Number of GPS satellites used (),GPS position mode (),GPS velocity mode (),GPS dual antenna attitude mode (),Heading (deg),Pitch (deg),Roll (deg),Slip angle (deg),Angular rate forward (deg/s),Angular rate lateral (deg/s),Angular rate down (deg/s),Angular rate Xv (deg/s),Angular rate Yv (deg/s),Angular rate Zv (deg/s),Acceleration forward (m/s²),Acceleration lateral (m/s²),Acceleration down (m/s²),Acceleration Xv (m/s²),Acceleration Yv (m/s²),Acceleration Zv (m/s²)
0.080000000,0.000000000,0.010000000,1.26057403408E+18,170834.08,38.0163432256947,-122.013288879841,0.100000001490116,4.30163716841966E-05,0.00860336925611373,4.51380433465465E-05,0,0.00860348766489497,8,RTK Integer (6),RTK Integer (6),,340.000775969306,0,0,,0,0,0,0,0,0,0,0,0,0,0,0
0.090000000,0.010000000,0.020000000,1.26057403409E+18,170834.09,38.0163432256947,-122.013288879841,0.100000001490116,8.60337689840454E-05,0,0,0,0,8,RTK Integer (6),RTK Integer (6),,340.000775969306,0,0,,0,0,0,0,0,0,0,0,0,0,0,0
0.100000000,0.020000000,0.030000000,1.2605740341E+18,170834.1,38.0163432256947,-122.013288879841,0.100000001490116,9.4577764581166E-05,0.0017087200545043,-1.66064847223828E-05,0,0.00170880074906351,8,RTK Integer (6),RTK Integer (6),,340.000775969306,0,0,,0,0,0,0,0,0,0,0,0,0,0,0
0.110000000,0.030000000,0.040000000,1.26057403411E+18,170834.11,38.0163432256947,-122.013288879841,0.100000001490116,0.000128754561789341,0.00512616016351289,-4.98194541671483E-05,0,0.00512640224719052,8,RTK Integer (6),RTK Integer (6),,340.000775969306,0,0,,0,0,0,0,0,0,0,0,0,0,0,0
0.120000000,0.040000000,0.050000000,1.26057403412E+18,170834.12,38.0163432256947,-122.013288879841,0.100000001490116,0.000162929729358131,0.0017087200545043,-1.66064847223828E-05,0,0.00170880074906351,8,RTK Integer (6),RTK Integer (6),,340.000775969306,0,0,,0,0,0,0,0,0,0,0,0,0,0,0
0.130000000,0.050000000,0.060000000,1.26057403413E+18,170834.13,38.0163432256947,-122.013288879841,0.100000001490116,0.000180017720552372,-0.0017087200545043,1.66064847223828E-05,0,0.00170880074906351,8,RTK Integer (6),RTK Integer (6),,340.000775969306,0,0,,0,0,0,0,0,0,0,0,0,0,0,0
0.140000000,0.060000000,0.070000000,1.26057403414E+18,170834.14,38.0163432256947,-122.013288879841,0.100000001490116,0.000188561919854416,0,0,0,0,8,RTK Integer (6),RTK Integer (6),,340.000775969306,0,0,,0,0,0,0,0,0,0,0,0,0,0,0
0.150000000,0.070000000,0.080000000,1.26057403415E+18,170834.15,38.0163432256947,-122.013288879841,0.100000001490116,0.000205649911048657,0.00341744010900859,-3.32129694447657E-05,0,0.00341760149812701,8,RTK Integer (6),RTK Integer (6),,340.000775969306,0,0,,0,0,0,0,0,0,0,0,0,0,0,0
0.160000000,0.080000000,0.090000000,1.26057403416E+18,170834.16,38.0163432256947,-122.013288879841,0.100000001490116,0.00024836988903426,-0.00512616016351289,4.98194541671483E-05,0,0.00512640224719052,8,RTK Integer (6),RTK Integer (6),,340.000775969306,0,0,,0,0,0,0,0,0,0,0,0,0,0,0
0.170000000,0.090000000,0.100000000,1.26057403417E+18,170834.17,38.0163432256947,-122.013288879841,0.100000001490116,0.000291088848495247,-0.00341744010900859,3.32129694447657E-05,0,0.00341760149812701,8,RTK Integer (6),RTK Integer (6),,340.000775969306,0,0,,0,0,0,0,0,0,0,0,0,0,0,0
0.180000000,0.100000000,0.110000000,1.26057403418E+18,170834.18,38.0163432256947,-122.013288879841,0.100000001490116,0.000325265645703422,-0.00341744010900859,3.32129694447657E-05,0,0.00341760149812701,8,RTK Integer (6),RTK Integer (6),,340.000775969306,0,0,,0,0,0,0,0,0,0,0,0,0,0,0
0.190000000,0.110000000,0.120000000,1.26057403419E+18,170834.19,38.0163432256947,-122.013288879841,0.100000001490116,0.000350897632494784,0.0017087200545043,-1.66064847223828E-05,0,0.00170880074906351,8,RTK Integer (6),RTK Integer (6),,340.000775969306,0,0,,0,0,0,0,0,0,0,0,0,0,0,0
0.200000000,0.120000000,0.130000000,1.2605740342E+18,170834.2,38.0163432256947,-122.013288879841,0.100000001490116,0.000367985623689025,0.0017087200545043,-1.66064847223828E-05,0,0.00170880074906351,8,RTK Integer (6),RTK Integer (6),,340.000775969306,0,0,,0,0,0,0,0,0,0,0,0,0,0,0
0.210000000,0.130000000,0.140000000,1.26057403421E+18,170834.21,38.0163432256947,-122.013288879841,0.100000001490116,0.000393616999365617,0.00341744010900859,-3.32129694447657E-05,0,0.00341760149812701,8,RTK Integer (6),RTK Integer (6),,340.000775969306,0,0,,0,0,0,0,0,0,0,0,0,0,0,0
0.220000000,0.140000000,0.150000000,1.26057403422E+18,170834.22,38.0163432256947,-122.013288879841,0.100000001490116,0.000410705397969705,0,0,0,0,8,RTK Integer (6),RTK Integer (6),,340.000775969306,0,0,,0,0,0,0,0,0,0,0,0,0,0,0
0.230000000,0.150000000,0.160000000,1.26057403423E+18,170834.23,38.0163432256947,-122.013288879841,0.100000001490116,0.000410705397969705,0,0,0,0,8,RTK Integer (6),RTK Integer (6),,340.000775969306,0,0,,0,0,0,0,0,0,0,0,0,0,0,0
0.240000000,0.160000000,0.170000000,1.26057403424E+18,170834.24,38.0163432256947,-122.013288879841,0.100000001490116,0.000419249393566826,-0.0017087200545043,1.66064847223828E-05,0,0.00170880074906351,8,RTK Integer (6),RTK Integer (6),,340.000775969306,0,0,,0,0,0,0,0,0,0,0,0,0,0,0
0.250000000,0.170000000,0.180000000,1.26057403425E+18,170834.25,38.0163432256947,-122.013288879841,0.100000001490116,0.00043633697735122,-0.0017087200545043,1.66064847223828E-05,0,0.00170880074906351,8,RTK Integer (6),RTK Integer (6),,340.000775969306,0,0,,0,0,0,0,0,0,0,0,0,0,0,0
0.260000000,0.180000000,0.190000000,1.26057403426E+18,170834.26,38.0163432256947,-122.013288879841,0.100000001490116,0.000453425375955308,0.0017087200545043,-1.66064847223828E-05,0,0.00170880074906351,8,RTK Integer (6),RTK Integer (6),,340.000775969306,0,0,,0,0,0,0,0,0,0,0,0,0,0,0
0.270000000,0.190000000,0.200000000,1.26057403427E+18,170834.27,38.0163432256947,-122.013288879841,0.100000001490116,0.000461969575257352,0,0,0,0,8,RTK Integer (6),RTK Integer (6),,340.000775969306,0,0,,0,0,0,0,0,0,0,0,0,0,0,0
0.280000000,0.200000000,0.210000000,1.26057403428E+18,170834.28,38.0163432256947,-122.013288879841,0.100000001490116,0.000504985946941548,-0.00860336925611373,-4.51380433465465E-05,0,0.00860348766489497,8,RTK Integer (6),RTK Integer (6),,340.000775969306,0,0,,0,0,0,0,0,0,0,0,0,0,0,0
0.290000000,0.210000000,0.220000000,1.26057403429E+18,170834.29,38.0163432256947,-122.013288879841,0.100000001490116,0.000565091335435638,-0.00341744010900859,3.32129694447657E-05,0,0.00341760149812701,8,RTK Integer (6),RTK Integer (6),,340.000775969306,0,0,,0,0,0,0,0,0,0,0,0,0,0,0
0.300000000,0.220000000,0.230000000,1.2605740343E+18,170834.3,38.0163432256947,-122.013288879841,0.100000001490116,0.000590723322227,0.0017087200545043,-1.66064847223828E-05,0,0.00170880074906351,8,RTK Integer (6),RTK Integer (6),,340.000775969306,0,0,,0,0,0,0,0,0,0,0,0,0,0,0
0.310000000,0.230000000,0.240000000,1.26057403431E+18,170834.31,38.0163432256947,-122.013288879841,0.100000001490116,0.000616355920133132,0.00341744010900859,-3.32129694447657E-05,0,0.00341760149812701,8,RTK Integer (6),RTK Integer (6),,340.000775969306,0,0,,0,0,0,0,0,0,0,0,0,0,0,0
0.320000000,0.240000000,0.250000000,1.26057403432E+18,170834.32,38.0163432256947,-122.013288879841,0.100000001490116,0.000641987295809724,0.0017087200545043,-1.66064847223828E-05,0,0.00170880074906351,8,RTK Integer (6),RTK Integer (6),,340.000775969306,0,0,,0,0,0,0,0,0,0,0,0,0,0,0
0.330000000,0.250000000,0.260000000,1.26057403433E+18,170834.33,38.0163432256947,-122.013288879841,0.100000001490116,0.000676163278198206,0.00512616016351289,-4.98194541671483E-05,0,0.00512640224719052,8,RTK Integer (6),RTK Integer (6),,340.000775969306,0,0,,0,0,0,0,0,0,0,0,0,0,0,0
0.340000000,0.260000000,0.270000000,1.26057403434E+18,170834.34,38.0163432256947,-122.013288879841,0.100000001490116,0.000701795264989568,0,0,0,0,8,RTK Integer (6),RTK Integer (6),,340.000775969306,0,0,,0,0,0,0,0,0,0,0,0,0,0,0
0.350000000,0.270000000,0.280000000,1.26057403435E+18,170834.35,38.0163432256947,-122.013288879841,0.100000001490116,0.000718883663593656,-0.00341744010900859,3.32129694447657E-05,0,0.00341760149812701,8,RTK Integer (6),RTK Integer (6),,340.000775969306,0,0,,0,0,0,0,0,0,0,0,0,0,0,0
0.360000000,0.280000000,0.290000000,1.26057403436E+18,170834.36,38.0163432256947,-122.013288879841,0.100000001490116,0.00073597124737805,0,0,0,0,8,RTK Integer (6),RTK Integer (6),,340.000775969306,0,0,,0,0,0,0,0,0,0,0,0,0,0,0
0.370000000,0.290000000,0.300000000,1.26057403437E+18,170834.37,38.0163432256947,-122.013288879841,0.100000001490116,0.000753059238572291,-0.00341744010900859,3.32129694447657E-05,0,0.00341760149812701,8,RTK Integer (6),RTK Integer (6),,340.000775969306,0,0,,0,0,0,0,0,0,0,0,0,0,0,0
0.380000000,0.300000000,0.310000000,1.26057403438E+18,170834.38,38.0163432256947,-122.013288879841,0.100000001490116,0.000795780235082511,-0.00512616016351289,4.98194541671483E-05,0,0.00512640224719052,8,RTK Integer (6),RTK Integer (6),,340.000775969306,0,0,,0,0,0,0,0,0,0,0,0,0,0,0
0.390000000,0.310000000,0.320000000,1.26057403439E+18,170834.39,38.0163432256947,-122.013288879841,0.100000001490116,0.000821412221873873,0,0,0,0,8,RTK Integer (6),RTK Integer (6),,340.000775969306,0,0,,0,0,0,0,0,0,0,0,0,0,0,0
0.400000000,0.320000000,0.330000000,1.2605740344E+18,170834.4,38.0163432256947,-122.013288879841,0.100000001490116,0.000829956217470993,0.0017087200545043,-1.66064847223828E-05,0,0.00170880074906351,8,RTK Integer (6),RTK Integer (6),,340.000775969306,0,0,,0,0,0,0,0,0,0,0,0,0,0,0
0.410000000,0.330000000,0.340000000,1.26057403441E+18,170834.41,38.0163432256947,-122.013288879841,0.100000001490116,0.000847043801255388,0.0017087200545043,-1.66064847223828E-05,0,0.00170880074906351,8,RTK Integer (6),RTK Integer (6),,340.000775969306,0,0,,0,0,0,0,0,0,0,0,0,0,0,0
0.420000000,0.340000000,0.350000000,1.26057403442E+18,170834.42,38.0163432256947,-122.013288879841,0.100000001490116,0.000855588000557432,0,0,0,0,8,RTK Integer (6),RTK Integer (6),,340.000775969306,0,0,,0,0,0,0,0,0,0,0,0,0,0,0
0.430000000,0.350000000,0.360000000,1.26057403443E+18,170834.43,38.0163432256947,-122.013288879841,0.100000001490116,0.000855588000557432,0,0,0,0,8,RTK Integer (6),RTK Integer (6),,340.000775969306,0,0,,0,0,0,0,0,0,0,0,0,0,0,0
0.440000000,0.360000000,0.370000000,1.26057403444E+18,170834.44,38.0163432256947,-122.013288879841,0.100000001490116,0.000855588000557432,0,0,0,0,8,RTK Integer (6),RTK Integer (6),,340.000775969306,0,0,,0,0,0,0,0,0,0,0,0,0,0,0
0.450000000,0.370000000,0.380000000,1.26057403445E+18,170834.45,38.0163432256947,-122.013288879841,0.100000001490116,0.000872675584341826,-0.00341744010900859,3.32129694447657E-05,0,0.00341760149812701,8,RTK Integer (6),RTK Integer (6),,340.000775969306,0,0,,0,0,0,0,0,0,0,0,0,0,0,0
0.460000000,0.380000000,0.390000000,1.26057403446E+18,170834.46,38.0163432256947,-122.013288879841,0.100000001490116,0.000898308182247958,-0.0017087200545043,1.66064847223828E-05,0,0.00170880074906351,8,RTK Integer (6),RTK Integer (6),,340.000775969306,0,0,,0,0,0,0,0,0,0,0,0,0,0,0
0.470000000,0.390000000,0.400000000,1.26057403447E+18,170834.47,38.0163432256947,-122.013288879841,0.100000001490116,0.000915396173442199,0.0017087200545043,-1.66064847223828E-05,0,0.00170880074906351,8,RTK Integer (6),RTK Integer (6),,340.000775969306,0,0,,0,0,0,0,0,0,0,0,0,0,0,0
0.480000000,0.400000000,0.410000000,1.26057403448E+18,170834.48,38.0163432256947,-122.013288879841,0.100000001490116,0.000941028160233561,0.00341744010900859,-3.32129694447657E-05,0,0.00341760149812701,8,RTK Integer (6),RTK Integer (6),,340.000775969306,0,0,,0,0,0,0,0,0,0,0,0,0,0,0
0.490000000,0.410000000,0.420000000,1.26057403449E+18,170834.49,38.0163432256947,-122.013288879841,0.100000001490116,0.000966659535910153,-0.0017087200545043,1.66064847223828E-05,0,0.00170880074906351,8,RTK Integer (6),RTK Integer (6),,340.000775969306,0,0,,0,0,0,0,0,0,0,0,0,0,0,0
0.500000000,0.420000000,0.430000000,1.2605740345E+18,170834.5,38.0163432256947,-122.013288879841,0.100000001490116,0.000983747934514241,-0.0017087200545043,1.66064847223828E-05,0,0.00170880074906351,8,RTK Integer (6),RTK Integer (6),,340.000775969306,0,0,,0,0,0,0,0,0,0,0,0,0,0,0
0.510000000,0.430000000,0.440000000,1.26057403451E+18,170834.51,38.0163432256947,-122.013288879841,0.100000001490116,0.00100938053242037,-0.00341744010900859,3.32129694447657E-05,0,0.00341760149812701,8,RTK Integer (6),RTK Integer (6),,340.000775969306,0,0,,0,0,0,0,0,0,0,0,0,0,0,0
0.520000000,0.440000000,0.450000000,1.26057403452E+18,170834.52,38.0163432256947,-122.013288879841,0.100000001490116,0.00103501190809696,0.0017087200545043,-1.66064847223828E-05,0,0.00170880074906351,8,RTK Integer (6),RTK Integer (6),,340.000775969306,0,0,,0,0,0,0,0,0,0,0,0,0,0,0
0.530000000,0.450000000,0.460000000,1.26057403453E+18,170834.53,38.0163432256947,-122.013288879841,0.100000001490116,0.00105209989929121,-0.0017087200545043,1.66064847223828E-05,0,0.00170880074906351,8,RTK Integer (6),RTK Integer (6),,340.000775969306,0,0,,0,0,0,0,0,0,0,0,0,0,0,0
0.540000000,0.460000000,0.470000000,1.26057403454E+18,170834.54,38.0163432256947,-122.013288879841,0.100000001490116,0.00106918789048545,0.0017087200545043,-1.66064847223828E-05,0,0.00170880074906351,8,RTK Integer (6),RTK Integer (6),,340.000775969306,0,0,,0,0,0,0,0,0,0,0,0,0,0,0
0.550000000,0.470000000,0.480000000,1.26057403455E+18,170834.55,38.0163432256947,-122.013288879841,0.100000001490116,0.00109482048839158,0.00341744010900859,-3.32129694447657E-05,0,0.00341760149812701,8,RTK Integer (6),RTK Integer (6),,340.000775969306,0,0,,0,0,0,0,0,0,0,0,0,0,0,0
0.560000000,0.480000000,0.490000000,1.26057403456E+18,170834.56,38.0163432256947,-122.013288879841,0.100000001490116,0.00113753944785256,-0.00512616016351289,4.98194541671483E-05,0,0.00512640224719052,8,RTK Integer (6),RTK Integer (6),,340.000775969306,0,0,,0,0,0,0,0,0,0,0,0,0,0,0
0.570000000,0.490000000,0.500000000,1.26057403457E+18,170834.57,38.0163432256947,-122.013288879841,0.100000001490116,0.00116317143464393,0,0,0,0,8,RTK Integer (6),RTK Integer (6),,340.000775969306,0,0,,0,0,0,0,0,0,0,0,0,0,0,0
0.580000000,0.500000000,0.510000000,1.26057403458E+18,170834.58,38.0163432256947,-122.013288879841,0.100000001490116,0.00118880342143529,0.00512616016351289,-4.98194541671483E-05,0,0.00512640224719052,8,RTK Integer (6),RTK Integer (6),,340.000775969306,0,0,,0,0,0,0,0,0,0,0,0,0,0,0
0.590000000,0.510000000,0.520000000,1.26057403459E+18,170834.59,38.0163432256947,-122.013288879841,0.100000001490116,0.00121443601934142,0,0,0,0,8,RTK Integer (6),RTK Integer (6),,340.000775969306,0,0,,0,0,0,0,0,0,0,0,0,0,0,0
0.600000000,0.520000000,0.530000000,1.2605740346E+18,170834.6,38.0163432256947,-122.013288879841,0.100000001490116,0.00122297981123362,-0.0017087200545043,1.66064847223828E-05,0,0.00170880074906351,8,RTK Integer (6),RTK Integer (6),,340.000775969306,0,0,,0,0,0,0,0,0,0,0,0,0,0,0
0.610000000,0.530000000,0.540000000,1.26057403461E+18,170834.61,38.0163432256947,-122.013288879841,0.100000001490116,0.00124861179802498,-0.00341744010900859,3.32129694447657E-05,0,0.00341760149812701,8,RTK Integer (6),RTK Integer (6),,340.000775969306,0,0,,0,0,0,0,0,0,0,0,0,0,0,0
0.620000000,0.540000000,0.550000000,1.26057403462E+18,170834.62,38.0163432256947,-122.013288879841,0.100000001490116,0.00128278778041346,-0.00341744010900859,3.32129694447657E-05,0,0.00341760149812701,8,RTK Integer (6),RTK Integer (6),,340.000775969306,0,0,,0,0,0,0,0,0,0,0,0,0,0,0
0.630000000,0.550000000,0.560000000,1.26057403463E+18,170834.63,38.0163432256947,-122.013288879841,0.100000001490116,0.00129987617901755,0,0,0,0,8,RTK Integer (6),RTK Integer (6),,340.000775969306,0,0,,0,0,0,0,0,0,0,0,0,0,0,0
0.640000000,0.560000000,0.570000000,1.26057403464E+18,170834.64,38.0163432256947,-122.013288879841,0.100000001490116,0.00130842017461467,0.0017087200545043,-1.66064847223828E-05,0,0.00170880074906351,8,RTK Integer (6),RTK Integer (6),,340.000775969306,0,0,,0,0,0,0,0,0,0,0,0,0,0,0
0.650000000,0.570000000,0.580000000,1.26057403465E+18,170834.65,38.0163432256947,-122.013288879841,0.100000001490116,0.00135143774004199,-0.00689464920160943,-6.174452806893E-05,0,0.00689492567037528,8,RTK Integer (6),RTK Integer (6),,340.000775969306,0,0,,0,0,0,0,0,0,0,0,0,0,0,0
0.660000000,0.580000000,0.590000000,1.26057403466E+18,170834.66,38.0163432256947,-122.013288879841,0.100000001490116,0.00138591315745548,0,0,0,0,8,RTK Integer (6),RTK Integer (6),,340.000775969306,0,0,,0,0,0,0,0,0,0,0,0,0,0,0
0.670000000,0.590000000,0.600000000,1.26057403467E+18,170834.67,38.0163432256947,-122.013288879841,0.100000001490116,0.00141154514424685,0.00512616016351289,-4.98194541671483E-05,0,0.00512640224719052,8,RTK Integer (6),RTK Integer (6),,340.000775969306,0,0,,0,0,0,0,0,0,0,0,0,0,0,0
0.680000000,0.600000000,0.610000000,1.26057403468E+18,170834.68,38.0163432256947,-122.013288879841,0.100000001490116,0.00144572112663533,0.0017087200545043,-1.66064847223828E-05,0,0.00170880074906351,8,RTK Integer (6),RTK Integer (6),,340.000775969306,0,0,,0,0,0,0,0,0,0,0,0,0,0,0
0.690000000,0.610000000,0.620000000,1.26057403469E+18,170834.69,38.0163432256947,-122.013288879841,0.100000001490116,0.00146280871041972,0.0017087200545043,-1.66064847223828E-05,0,0.00170880074906351,8,RTK Integer (6),RTK Integer (6),,340.000775969306,0,0,,0,0,0,0,0,0,0,0,0,0,0,0
0.700000000,0.620000000,0.630000000,1.2605740347E+18,170834.7,38.0163432256947,-122.013288879841,0.100000001490116,0.00147135290972177,0,0,0,0,8,RTK Integer (6),RTK Integer (6),,340.000775969306,0,0,,0,0,0,0,0,0,0,0,0,0,0,0
0.710000000,0.630000000,0.640000000,1.26057403471E+18,170834.71,38.0163432256947,-122.013288879841,0.100000001490116,0.00147135290972177,0,0,0,0,8,RTK Integer (6),RTK Integer (6),,340.000775969306,0,0,,0,0,0,0,0,0,0,0,0,0,0,0
0.720000000,0.640000000,0.650000000,1.26057403472E+18,170834.72,38.0163432256947,-122.013288879841,0.100000001490116,0.00148844090091601,-0.00341744010900859,3.32129694447657E-05,0,0.00341760149812701,8,RTK Integer (6),RTK Integer (6),,340.000775969306,0,0,,0,0,0,0,0,0,0,0,0,0,0,0
0.730000000,0.650000000,0.660000000,1.26057403473E+18,170834.73,38.0163432256947,-122.013288879841,0.100000001490116,0.0015226160684848,-0.00341744010900859,3.32129694447657E-05,0,0.00341760149812701,8,RTK Integer (6),RTK Integer (6),,340.000775969306,0,0,,0,0,0,0,0,0,0,0,0,0,0,0
0.740000000,0.660000000,0.670000000,1.26057403474E+18,170834.74,38.0163432256947,-122.013288879841,0.100000001490116,0.00155679286569297,-0.00341744010900859,3.32129694447657E-05,0,0.00341760149812701,8,RTK Integer (6),RTK Integer (6),,340.000775969306,0,0,,0,0,0,0,0,0,0,0,0,0,0,0
0.750000000,0.670000000,0.680000000,1.26057403475E+18,170834.75,38.0163432256947,-122.013288879841,0.100000001490116,0.00157388126429706,0,0,0,0,8,RTK Integer (6),RTK Integer (6),,340.000775969306,0,0,,0,0,0,0,0,0,0,0,0,0,0,0
0.760000000,0.680000000,0.690000000,1.26057403476E+18,170834.76,38.0163432256947,-122.013288879841,0.100000001490116,0.00159096884808146,-0.00341744010900859,3.32129694447657E-05,0,0.00341760149812701,8,RTK Integer (6),RTK Integer (6),,340.000775969306,0,0,,0,0,0,0,0,0,0,0,0,0,0,0
0.770000000,0.690000000,0.700000000,1.26057403477E+18,170834.77,38.0163432256947,-122.013288879841,0.100000001490116,0.00162514483046994,-0.00341744010900859,3.32129694447657E-05,0,0.00341760149812701,8,RTK Integer (6),RTK Integer (6),,340.000775969306,0,0,,0,0,0,0,0,0,0,0,0,0,0,0
0.780000000,0.700000000,0.710000000,1.26057403478E+18,170834.78,38.0163432256947,-122.013288879841,0.100000001490116,0.00166786480845554,0.00512616016351289,-4.98194541671483E-05,0,0.00512640224719052,8,RTK Integer (6),RTK Integer (6),,340.000775969306,0,0,,0,0,0,0,0,0,0,0,0,0,0,0
0.790000000,0.710000000,0.720000000,1.26057403479E+18,170834.79,38.0163432256947,-122.013288879841,0.100000001490116,0.00170204160566372,0.0017087200545043,-1.66064847223828E-05,0,0.00170880074906351,8,RTK Integer (6),RTK Integer (6),,340.000775969306,0,0,,0,0,0,0,0,0,0,0,0,0,0,0
0.800000000,0.720000000,0.730000000,1.2605740348E+18,170834.8,38.0163432256947,-122.013288879841,0.100000001490116,0.00173621677323251,-0.00512616016351289,4.98194541671483E-05,0,0.00512640224719052,8,RTK Integer (6),RTK Integer (6),,340.000775969306,0,0,,0,0,0,0,0,0,0,0,0,0,0,0
0.810000000,0.730000000,0.740000000,1.26057403481E+18,170834.81,38.0163432256947,-122.013288879841,0.100000001490116,0.00177893675121811,-0.00341744010900859,3.32129694447657E-05,0,0.00341760149812701,8,RTK Integer (6),RTK Integer (6),,340.000775969306,0,0,,0,0,0,0,0,0,0,0,0,0,0,0
0.820000000,0.740000000,0.750000000,1.26057403482E+18,170834.82,38.0163432256947,-122.013288879841,0.100000001490116,0.00180456873800947,-0.0017087200545043,1.66064847223828E-05,0,0.00170880074906351,8,RTK Integer (6),RTK Integer (6),,340.000775969306,0,0,,0,0,0,0,0,0,0,0,0,0,0,0
0.830000000,0.750000000,0.760000000,1.26057403483E+18,170834.83,38.0163432256947,-122.013288879841,0.100000001490116,0.00181311293731151,0,0,0,0,8,RTK Integer (6),RTK Integer (6),,340.000775969306,0,0,,0,0,0,0,0,0,0,0,0,0,0,0
0.840000000,0.760000000,0.770000000,1.26057403484E+18,170834.84,38.0163432256947,-122.013288879841,0.100000001490116,0.00181311293731151,0,0,0,0,8,RTK Integer (6),RTK Integer (6),,340.000775969306,0,0,,0,0,0,0,0,0,0,0,0,0,0,0
0.850000000,0.770000000,0.780000000,1.26057403485E+18,170834.85,38.0163432256947,-122.013288879841,0.100000001490116,0.00182165693290864,-0.0017087200545043,1.66064847223828E-05,0,0.00170880074906351,8,RTK Integer (6),RTK Integer (6),,340.000775969306,0,0,,0,0,0,0,0,0,0,0,0,0,0,0
0.860000000,0.780000000,0.790000000,1.26057403486E+18,170834.86,38.0163432256947,-122.013288879841,0.100000001490116,0.00186467552398006,0.00689464920160943,6.174452806893E-05,0,0.00689492567037528,8,RTK Integer (6),RTK Integer (6),,340.000775969306,0,0,,0,0,0,0,0,0,0,0,0,0,0,0
0.870000000,0.790000000,0.800000000,1.26057403487E+18,170834.87,38.0163432256947,-122.013288879841,0.100000001490116,0.00191623933999765,0.00341744010900859,-3.32129694447657E-05,0,0.00341760149812701,8,RTK Integer (6),RTK Integer (6),,340.000775969306,0,0,,0,0,0,0,0,0,0,0,0,0,0,0
0.880000000,0.800000000,0.810000000,1.26057403488E+18,170834.88,38.0163432256947,-122.013288879841,0.100000001490116,0.00195895931798325,-0.00512616016351289,4.98194541671483E-05,0,0.00512640224719052,8,RTK Integer (6),RTK Integer (6),,340.000775969306,0,0,,0,0,0,0,0,0,0,0,0,0,0,0
0.890000000,0.810000000,0.820000000,1.26057403489E+18,170834.89,38.0163432256947,-122.013288879841,0.100000001490116,0.00200167827744424,0.00341744010900859,-3.32129694447657E-05,0,0.00341760149812701,8,RTK Integer (6),RTK Integer (6),,340.000775969306,0,0,,0,0,0,0,0,0,0,0,0,0,0,0
0.900000000,0.820000000,0.830000000,1.2605740349E+18,170834.9,38.0163432256947,-122.013288879841,0.100000001490116,0.00203585507465242,-0.00341744010900859,3.32129694447657E-05,0,0.00341760149812701,8,RTK Integer (6),RTK Integer (6),,340.000775969306,0,0,,0,0,0,0,0,0,0,0,0,0,0,0
0.910000000,0.830000000,0.840000000,1.26057403491E+18,170834.91,38.0163432256947,-122.013288879841,0.100000001490116,0.00206148706144378,-0.0017087200545043,1.66064847223828E-05,0,0.00170880074906351,8,RTK Integer (6),RTK Integer (6),,340.000775969306,0,0,,0,0,0,0,0,0,0,0,0,0,0,0
0.920000000,0.840000000,0.850000000,1.26057403492E+18,170834.92,38.0163432256947,-122.013288879841,0.100000001490116,0.0020700310570409,0,0,0,0,8,RTK Integer (6),RTK Integer (6),,340.000775969306,0,0,,0,0,0,0,0,0,0,0,0,0,0,0
0.930000000,0.850000000,0.860000000,1.26057403493E+18,170834.93,38.0163432256947,-122.013288879841,0.100000001490116,0.0020785748489331,-0.0017087200545043,1.66064847223828E-05,0,0.00170880074906351,8,RTK Integer (6),RTK Integer (6),,340.000775969306,0,0,,0,0,0,0,0,0,0,0,0,0,0,0
0.940000000,0.860000000,0.870000000,1.26057403494E+18,170834.94,38.0163432256947,-122.013288879841,0.100000001490116,0.00208711904823514,0,0,0,0,8,RTK Integer (6),RTK Integer (6),,340.000775969306,0,0,,0,0,0,0,0,0,0,0,0,0,0,0
0.950000000,0.870000000,0.880000000,1.26057403495E+18,170834.95,38.0163432256947,-122.013288879841,0.100000001490116,0.00210420703942938,-0.00341744010900859,3.32129694447657E-05,0,0.00341760149812701,8,RTK Integer (6),RTK Integer (6),,340.000775969306,0,0,,0,0,0,0,0,0,0,0,0,0,0,0
0.960000000,0.880000000,0.890000000,1.26057403496E+18,170834.96,38.0163432256947,-122.013288879841,0.100000001490116,0.00212129503062362,0,0,0,0,8,RTK Integer (6),RTK Integer (6),,340.000775969306,0,0,,0,0,0,0,0,0,0,0,0,0,0,0
0.970000000,0.890000000,0.900000000,1.26057403497E+18,170834.97,38.0163432256947,-122.013288879841,0.100000001490116,0.00212983882251582,-0.0017087200545043,1.66064847223828E-05,0,0.00170880074906351,8,RTK Integer (6),RTK Integer (6),,340.000775969306,0,0,,0,0,0,0,0,0,0,0,0,0,0,0
0.980000000,0.900000000,0.910000000,1.26057403498E+18,170834.98,38.0163432256947,-122.013288879841,0.100000001490116,0.00213838302181786,0,0,0,0,8,RTK Integer (6),RTK Integer (6),,340.000775969306,0,0,,0,0,0,0,0,0,0,0,0,0,0,0
0.990000000,0.910000000,0.920000000,1.26057403499E+18,170834.99,38.0163432256947,-122.013288879841,0.100000001490116,0.00213838302181786,0,0,0,0,8,RTK Integer (6),RTK Integer (6),,340.000775969306,0,0,,0,0,0,0,0,0,0,0,0,0,0,0
1.000000000,0.920000000,0.930000000,1.260574035E+18,170835,38.0163432256947,-122.013288879841,0.100000001490116,0.00213838302181786,0,0,0,0,8,RTK Integer (6),RTK Integer (6),,340.000775969306,0,0,,0,0,0,0,0,0,0,0,0,0,0,0
1.010000000,0.930000000,0.940000000,1.26057403501E+18,170835.01,38.0163432256947,-122.013288879841,0.100000001490116,0.0021554710130121,-0.00341744010900859,3.32129694447657E-05,0,0.00341760149812701,8,RTK Integer (6),RTK Integer (6),,340.000775969306,0,0,,0,0,0,0,0,0,0,0,0,0,0,0
1.020000000,0.940000000,0.950000000,1.26057403502E+18,170835.02,38.0163432256947,-122.013288879841,0.100000001490116,0.00218110299980347,-0.0017087200545043,1.66064847223828E-05,0,0.00170880074906351,8,RTK Integer (6),RTK Integer (6),,340.000775969306,0,0,,0,0,0,0,0,0,0,0,0,0,0,0
1.030000000,0.950000000,0.960000000,1.26057403503E+18,170835.03,38.0163432256947,-122.013288879841,0.100000001490116,0.0022067355977096,-0.00341744010900859,3.32129694447657E-05,0,0.00341760149812701,8,RTK Integer (6),RTK Integer (6),,340.000775969306,0,0,,0,0,0,0,0,0,0,0,0,0,0,0
1.040000000,0.960000000,0.970000000,1.26057403504E+18,170835.04,38.0163432256947,-122.013288879841,0.100000001490116,0.00224091076527839,0.00341744010900859,-3.32129694447657E-05,0,0.00341760149812701,8,RTK Integer (6),RTK Integer (6),,340.000775969306,0,0,,0,0,0,0,0,0,0,0,0,0,0,0
1.050000000,0.970000000,0.980000000,1.26057403505E+18,170835.05,38.0163432256947,-122.013288879841,0.100000001490116,0.00227508674766687,-0.00341744010900859,3.32129694447657E-05,0,0.00341760149812701,8,RTK Integer (6),RTK Integer (6),,340.000775969306,0,0,,0,0,0,0,0,0,0,0,0,0,0,0
1.060000000,0.980000000,0.990000000,1.26057403506E+18,170835.06,38.0163432256947,-122.013288879841,0.100000001490116,0.00230926273005535,0.00341744010900859,-3.32129694447657E-05,0,0.00341760149812701,8,RTK Integer (6),RTK Integer (6),,340.000775969306,0,0,,0,0,0,0,0,0,0,0,0,0,0,0
1.070000000,0.990000000,1.000000000,1.26057403507E+18,170835.07,38.0163432256947,-122.013288879841,0.100000001490116,0.00233489532796148,0.0017087200545043,-1.66064847223828E-05,0,0.00170880074906351,8,RTK Integer (6),RTK Integer (6),,340.000775969306,0,0,,0,0,0,0,0,0,0,0,0,0,0,0
1.080000000,1.000000000,1.010000000,1.26057403508E+18,170835.08,38.0163432256947,-122.013288879841,0.100000001490116,0.00236052670363807,-0.00341744010900859,3.32129694447657E-05,0,0.00341760149812701,8,RTK Integer (6),RTK Integer (6),,340.000775969306,0,0,,0,0,0,0,0,0,0,0,0,0,0,0
1.090000000,1.010000000,1.020000000,1.26057403509E+18,170835.09,38.0163432256947,-122.013288879841,0.100000001490116,0.00238615869042944,-0.0017087200545043,1.66064847223828E-05,0,0.00170880074906351,8,RTK Integer (6),RTK Integer (6),,340.000775969306,0,0,,0,0,0,0,0,0,0,0,0,0,0,0
1.100000000,1.020000000,1.030000000,1.2605740351E+18,170835.1,38.0163432256947,-122.013288879841,0.100000001490116,0.0024117906772208,-0.00341744010900859,3.32129694447657E-05,0,0.00341760149812701,8,RTK Integer (6),RTK Integer (6),,340.000775969306,0,0,,0,0,0,0,0,0,0,0,0,0,0,0
1.110000000,1.030000000,1.040000000,1.26057403511E+18,170835.11,38.0163432256947,-122.013288879841,0.100000001490116,0.00244596747442897,0.00341744010900859,-3.32129694447657E-05,0,0.00341760149812701,8,RTK Integer (6),RTK Integer (6),,340.000775969306,0,0,,0,0,0,0,0,0,0,0,0,0,0,0
1.120000000,1.040000000,1.050000000,1.26057403512E+18,170835.12,38.0163432256947,-122.013288879841,0.100000001490116,0.00247159885010557,-0.0017087200545043,1.66064847223828E-05,0,0.00170880074906351,8,RTK Integer (6),RTK Integer (6),,340.000775969306,0,0,,0,0,0,0,0,0,0,0,0,0,0,0
1.130000000,1.050000000,1.060000000,1.26057403513E+18,170835.13,38.0163432256947,-122.013288879841,0.100000001490116,0.00248868684129981,-0.0017087200545043,1.66064847223828E-05,0,0.00170880074906351,8,RTK Integer (6),RTK Integer (6),,340.000775969306,0,0,,0,0,0,0,0,0,0,0,0,0,0,0
1.140000000,1.060000000,1.070000000,1.26057403514E+18,170835.14,38.0163432256947,-122.013288879841,0.100000001490116,0.00250577523990389,-0.0017087200545043,1.66064847223828E-05,0,0.00170880074906351,8,RTK Integer (6),RTK Integer (6),,340.000775969306,0,0,,0,0,0,0,0,0,0,0,0,0,0,0
1.150000000,1.070000000,1.080000000,1.26057403515E+18,170835.15,38.0163432256947,-122.013288879841,0.100000001490116,0.00253140722669526,-0.00341744010900859,3.32129694447657E-05,0,0.00341760149812701,8,RTK Integer (6),RTK Integer (6),,340.000775969306,0,0,,0,0,0,0,0,0,0,0,0,0,0,0
1.160000000,1.080000000,1.090000000,1.26057403516E+18,170835.16,38.0163432256947,-122.013288879841,0.100000001490116,0.00255703921348662,0.0017087200545043,-1.66064847223828E-05,0,0.00170880074906351,8,RTK Integer (6),RTK Integer (6),,340.000775969306,0,0,,0,0,0,0,0,0,0,0,0,0,0,0
1.170000000,1.090000000,1.100000000,1.26057403517E+18,170835.17,38.0163432256947,-122.013288879841,0.100000001490116,0.00257412679727101,-0.0017087200545043,1.66064847223828E-05,0,0.00170880074906351,8,RTK Integer (6),RTK Integer (6),,340.000775969306,0,0,,0,0,0,0,0,0,0,0,0,0,0,0
1.180000000,1.100000000,1.110000000,1.26057403518E+18,170835.18,38.0163432256947,-122.013288879841,0.100000001490116,0.0025912151958751,-0.0017087200545043,1.66064847223828E-05,0,0.00170880074906351,8,RTK Integer (6),RTK Integer (6),,340.000775969306,0,0,,0,0,0,0,0,0,0,0,0,0,0,0
1.190000000,1.110000000,1.120000000,1.26057403519E+18,170835.19,38.0163432256947,-122.013288879841,0.100000001490116,0.00260830318706934,0.0017087200545043,-1.66064847223828E-05,0,0.00170880074906351,8,RTK Integer (6),RTK Integer (6),,340.000775969306,0,0,,0,0,0,0,0,0,0,0,0,0,0,0
1.200000000,1.120000000,1.130000000,1.2605740352E+18,170835.2,38.0163432256947,-122.013288879841,0.100000001490116,0.00262539117826358,0.0017087200545043,-1.66064847223828E-05,0,0.00170880074906351,8,RTK Integer (6),RTK Integer (6),,340.000775969306,0,0,,0,0,0,0,0,0,0,0,0,0,0,0
1.210000000,1.130000000,1.140000000,1.26057403521E+18,170835.21,38.0163432256947,-122.013288879841,0.100000001490116,0.00264247876204798,0.0017087200545043,-1.66064847223828E-05,0,0.00170880074906351,8,RTK Integer (6),RTK Integer (6),,340.000775969306,0,0,,0,0,0,0,0,0,0,0,0,0,0,0
1.220000000,1.140000000,1.150000000,1.26057403522E+18,170835.22,38.0163432256947,-122.013288879841,0.100000001490116,0.00265102296135002,0,0,0,0,8,RTK Integer (6),RTK Integer (6),,340.000775969306,0,0,,0,0,0,0,0,0,0,0,0,0,0,0
1.230000000,1.150000000,1.160000000,1.26057403523E+18,170835.23,38.0163432256947,-122.013288879841,0.100000001490116,0.00269404035864987,0.00860336925611373,4.51380433465465E-05,0,0.00860348766489497,8,RTK Integer (6),RTK Integer (6),,340.000775969306,0,0,,0,0,0,0,0,0,0,0,0,0,0,0
1.240000000,1.160000000,1.170000000,1.26057403524E+18,170835.24,38.0163432256947,-122.013288879841,0.100000001490116,0.00273705775594972,0,0,0,0,8,RTK Integer (6),RTK Integer (6),,340.000775969306,0,0,,0,0,0,0,0,0,0,0,0,0,0,0
1.250000000,1.170000000,1.180000000,1.26057403525E+18,170835.25,38.0163432256947,-122.013288879841,0.100000001490116,0.00274560154784192,0.0017087200545043,-1.66064847223828E-05,0,0.00170880074906351,8,RTK Integer (6),RTK Integer (6),,340.000775969306,0,0,,0,0,0,0,0,0,0,0,0,0,0,0
1.260000000,1.180000000,1.190000000,1.26057403526E+18,170835.26,38.0163432256947,-122.013288879841,0.100000001490116,0.00275414574714396,0,0,0,0,8,RTK Integer (6),RTK Integer (6),,340.000775969306,0,0,,0,0,0,0,0,0,0,0,0,0,0,0
1.270000000,1.190000000,1.200000000,1.26057403527E+18,170835.27,38.0163432256947,-122.013288879841,0.100000001490116,0.002762689946446,0.0017087200545043,-1.66064847223828E-05,0,0.00170880074906351,8,RTK Integer (6),RTK Integer (6),,340.000775969306,0,0,,0,0,0,0,0,0,0,0,0,0,0,0
1.280000000,1.200000000,1.210000000,1.26057403528E+18,170835.28,38.0163432256947,-122.013288879841,0.100000001490116,0.0027797775302304,-0.0017087200545043,1.66064847223828E-05,0,0.00170880074906351,8,RTK Integer (6),RTK Integer (6),,340.000775969306,0,0,,0,0,0,0,0,0,0,0,0,0,0,0
1.290000000,1.210000000,1.220000000,1.26057403529E+18,170835.29,38.0163432256947,-122.013288879841,0.100000001490116,0.00279686552142464,0.0017087200545043,-1.66064847223828E-05,0,0.00170880074906351,8,RTK Integer (6),RTK Integer (6),,340.000775969306,0,0,,0,0,0,0,0,0,0,0,0,0,0,0
1.300000000,1.220000000,1.230000000,1.2605740353E+18,170835.3,38.0163432256947,-122.013288879841,0.100000001490116,0.002822497508216,0.00341744010900859,-3.32129694447657E-05,0,0.00341760149812701,8,RTK Integer (6),RTK Integer (6),,340.000775969306,0,0,,0,0,0,0,0,0,0,0,0,0,0,0
1.310000000,1.230000000,1.240000000,1.26057403531E+18,170835.31,38.0163432256947,-122.013288879841,0.100000001490116,0.00285667430542418,-0.00341744010900859,3.32129694447657E-05,0,0.00341760149812701,8,RTK Integer (6),RTK Integer (6),,340.000775969306,0,0,,0,0,0,0,0,0,0,0,0,0,0,0
1.320000000,1.240000000,1.250000000,1.26057403532E+18,170835.32,38.0163432256947,-122.013288879841,0.100000001490116,0.00287376188920857,0,0,0,0,8,RTK Integer (6),RTK Integer (6),,340.000775969306,0,0,,0,0,0,0,0,0,0,0,0,0,0,0
1.330000000,1.250000000,1.260000000,1.26057403533E+18,170835.33,38.0163432256947,-122.013288879841,0.100000001490116,0.00289084988040281,0.00341744010900859,-3.32129694447657E-05,0,0.00341760149812701,8,RTK Integer (6),RTK Integer (6),,340.000775969306,0,0,,0,0,0,0,0,0,0,0,0,0,0,0
1.340000000,1.260000000,1.270000000,1.26057403534E+18,170835.34,38.0163432256947,-122.013288879841,0.100000001490116,0.00290793787159705,0,0,0,0,8,RTK Integer (6),RTK Integer (6),,340.000775969306,0,0,,0,0,0,0,0,0,0,0,0,0,0,0
1.350000000,1.270000000,1.280000000,1.26057403535E+18,170835.35,38.0163432256947,-122.013288879841,0.100000001490116,0.00290793787159705,0,0,0,0,8,RTK Integer (6),RTK Integer (6),,340.000775969306,0,0,,0,0,0,0,0,0,0,0,0,0,0,0
1.360000000,1.280000000,1.290000000,1.26057403536E+18,170835.36,38.0163432256947,-122.013288879841,0.100000001490116,0.00290793787159705,0,0,0,0,8,RTK Integer (6),RTK Integer (6),,340.000775969306,0,0,,0,0,0,0,0,0,0,0,0,0,0,0
1.370000000,1.290000000,1.300000000,1.26057403537E+18,170835.37,38.0163432256947,-122.013288879841,0.100000001490116,0.00292502586279129,0.00341744010900859,-3.32129694447657E-05,0,0.00341760149812701,8,RTK Integer (6),RTK Integer (6),,340.000775969306,0,0,,0,0,0,0,0,0,0,0,0,0,0,0
1.380000000,1.300000000,1.310000000,1.26057403538E+18,170835.38,38.0163432256947,-122.013288879841,0.100000001490116,0.00295065846069743,-0.0017087200545043,1.66064847223828E-05,0,0.00170880074906351,8,RTK Integer (6),RTK Integer (6),,340.000775969306,0,0,,0,0,0,0,0,0,0,0,0,0,0,0
1.390000000,1.310000000,1.320000000,1.26057403539E+18,170835.39,38.0163432256947,-122.013288879841,0.100000001490116,0.00295920245629455,0,0,0,0,8,RTK Integer (6),RTK Integer (6),,340.000775969306,0,0,,0,0,0,0,0,0,0,0,0,0,0,0
1.400000000,1.320000000,1.330000000,1.2605740354E+18,170835.4,38.0163432256947,-122.013288879841,0.100000001490116,0.00295920245629455,0,0,0,0,8,RTK Integer (6),RTK Integer (6),,340.000775969306,0,0,,0,0,0,0,0,0,0,0,0,0,0,0
1.410000000,1.330000000,1.340000000,1.26057403541E+18,170835.41,38.0163432256947,-122.013288879841,0.100000001490116,0.00295920245629455,0,0,0,0,8,RTK Integer (6),RTK Integer (6),,340.000775969306,0,0,,0,0,0,0,0,0,0,0,0,0,0,0
1.420000000,1.340000000,1.350000000,1.26057403542E+18,170835.42,38.0163432256947,-122.013288879841,0.100000001490116,0.00297629085489863,-0.00341744010900859,3.32129694447657E-05,0,0.00341760149812701,8,RTK Integer (6),RTK Integer (6),,340.000775969306,0,0,,0,0,0,0,0,0,0,0,0,0,0,0
1.430000000,1.350000000,1.360000000,1.26057403543E+18,170835.43,38.0163432256947,-122.013288879841,0.100000001490116,0.00301046683728712,-0.00341744010900859,3.32129694447657E-05,0,0.00341760149812701,8,RTK Integer (6),RTK Integer (6),,340.000775969306,0,0,,0,0,0,0,0,0,0,0,0,0,0,0
1.440000000,1.360000000,1.370000000,1.26057403544E+18,170835.44,38.0163432256947,-122.013288879841,0.100000001490116,0.00302755482848136,0,0,0,0,8,RTK Integer (6),RTK Integer (6),,340.000775969306,0,0,,0,0,0,0,0,0,0,0,0,0,0,0
1.450000000,1.370000000,1.380000000,1.26057403545E+18,170835.45,38.0163432256947,-122.013288879841,0.100000001490116,0.00302755482848136,0,0,0,0,8,RTK Integer (6),RTK Integer (6),,340.000775969306,0,0,,0,0,0,0,0,0,0,0,0,0,0,0
1.460000000,1.380000000,1.390000000,1.26057403546E+18,170835.46,38.0163432256947,-122.013288879841,0.100000001490116,0.0030360990277834,-0.0017087200545043,1.66064847223828E-05,0,0.00170880074906351,8,RTK Integer (6),RTK Integer (6),,340.000775969306,0,0,,0,0,0,0,0,0,0,0,0,0,0,0
1.470000000,1.390000000,1.400000000,1.26057403547E+18,170835.47,38.0163432256947,-122.013288879841,0.100000001490116,0.00304464302338052,0,0,0,0,8,RTK Integer (6),RTK Integer (6),,340.000775969306,0,0,,0,0,0,0,0,0,0,0,0,0,0,0
1.480000000,1.400000000,1.410000000,1.26057403548E+18,170835.48,38.0163432256947,-122.013288879841,0.100000001490116,0.00304464302338052,0,0,0,0,8,RTK Integer (6),RTK Integer (6),,340.000775969306,0,0,,0,0,0,0,0,0,0,0,0,0,0,0
1.490000000,1.410000000,1.420000000,1.26057403549E+18,170835.49,38.0163432256947,-122.013288879841,0.100000001490116,0.00305318681527272,0.0017087200545043,-1.66064847223828E-05,0,0.00170880074906351,8,RTK Integer (6),RTK Integer (6),,340.000775969306,0,0,,0,0,0,0,0,0,0,0,0,0,0,0
1.500000000,1.420000000,1.430000000,1.2605740355E+18,170835.5,38.0163432256947,-122.013288879841,0.100000001490116,0.00307881941317885,0.00341744010900859,-3.32129694447657E-05,0,0.00341760149812701,8,RTK Integer (6),RTK Integer (6),,340.000775969306,0,0,,0,0,0,0,0,0,0,0,0,0,0,0
1.510000000,1.430000000,1.440000000,1.26057403551E+18,170835.51,38.0163432256947,-122.013288879841,0.100000001490116,0.00311299621038703,-0.00341744010900859,3.32129694447657E-05,0,0.00341760149812701,8,RTK Integer (6),RTK Integer (6),,340.000775969306,0,0,,0,0,0,0,0,0,0,0,0,0,0,0
1.520000000,1.440000000,1.450000000,1.26057403552E+18,170835.52,38.0163432256947,-122.013288879841,0.100000001490116,0.00313862758606362,-0.0017087200545043,1.66064847223828E-05,0,0.00170880074906351,8,RTK Integer (6),RTK Integer (6),,340.000775969306,0,0,,0,0,0,0,0,0,0,0,0,0,0,0
1.530000000,1.450000000,1.460000000,1.26057403553E+18,170835.53,38.0163432256947,-122.013288879841,0.100000001490116,0.00315571557725786,0.0017087200545043,-1.66064847223828E-05,0,0.00170880074906351,8,RTK Integer (6),RTK Integer (6),,340.000775969306,0,0,,0,0,0,0,0,0,0,0,0,0,0,0
1.540000000,1.460000000,1.470000000,1.26057403554E+18,170835.54,38.0163432256947,-122.013288879841,0.100000001490116,0.00316425957285498,0,0,0,0,8,RTK Integer (6),RTK Integer (6),,340.000775969306,0,0,,0,0,0,0,0,0,0,0,0,0,0,0
1.550000000,1.470000000,1.480000000,1.26057403555E+18,170835.55,38.0163432256947,-122.013288879841,0.100000001490116,0.00316425957285498,0,0,0,0,8,RTK Integer (6),RTK Integer (6),,340.000775969306,0,0,,0,0,0,0,0,0,0,0,0,0,0,0
1.560000000,1.480000000,1.490000000,1.26057403556E+18,170835.56,38.0163432256947,-122.013288879841,0.100000001490116,0.00318989094853157,-0.00512616016351289,4.98194541671483E-05,0,0.00512640224719052,8,RTK Integer (6),RTK Integer (6),,340.000775969306,0,0,,0,0,0,0,0,0,0,0,0,0,0,0
1.570000000,1.490000000,1.500000000,1.26057403557E+18,170835.57,38.0163432256947,-122.013288879841,0.100000001490116,0.00321552293532293,0,0,0,0,8,RTK Integer (6),RTK Integer (6),,340.000775969306,0,0,,0,0,0,0,0,0,0,0,0,0,0,0
1.580000000,1.500000000,1.510000000,1.26057403558E+18,170835.58,38.0163432256947,-122.013288879841,0.100000001490116,0.0032411549221143,-0.00512616016351289,4.98194541671483E-05,0,0.00512640224719052,8,RTK Integer (6),RTK Integer (6),,340.000775969306,0,0,,0,0,0,0,0,0,0,0,0,0,0,0
1.590000000,1.510000000,1.520000000,1.26057403559E+18,170835.59,38.0163432256947,-122.013288879841,0.100000001490116,0.00327533171932247,0.0017087200545043,-1.66064847223828E-05,0,0.00170880074906351,8,RTK Integer (6),RTK Integer (6),,340.000775969306,0,0,,0,0,0,0,0,0,0,0,0,0,0,0
1.600000000,1.520000000,1.530000000,1.2605740356E+18,170835.6,38.0163432256947,-122.013288879841,0.100000001490116,0.00328387551121467,0,0,0,0,8,RTK Integer (6),RTK Integer (6),,340.000775969306,0,0,,0,0,0,0,0,0,0,0,0,0,0,0
1.610000000,1.530000000,1.540000000,1.26057403561E+18,170835.61,38.0163432256947,-122.013288879841,0.100000001490116,0.00328387551121467,0,0,0,0,8,RTK Integer (6),RTK Integer (6),,340.000775969306,0,0,,0,0,0,0,0,0,0,0,0,0,0,0
1.620000000,1.540000000,1.550000000,1.26057403562E+18,170835.62,38.0163432256947,-122.013288879841,0.100000001490116,0.00328387551121467,0,0,0,0,8,RTK Integer (6),RTK Integer (6),,340.000775969306,0,0,,0,0,0,0,0,0,0,0,0,0,0,0
1.630000000,1.550000000,1.560000000,1.26057403563E+18,170835.63,38.0163432256947,-122.013288879841,0.100000001490116,0.0033095081091208,0.00512616016351289,-4.98194541671483E-05,0,0.00512640224719052,8,RTK Integer (6),RTK Integer (6),,340.000775969306,0,0,,0,0,0,0,0,0,0,0,0,0,0,0
1.640000000,1.560000000,1.570000000,1.26057403564E+18,170835.64,38.0163432256947,-122.013288879841,0.100000001490116,0.00336077208270352,0.00512616016351289,-4.98194541671483E-05,0,0.00512640224719052,8,RTK Integer (6),RTK Integer (6),,340.000775969306,0,0,,0,0,0,0,0,0,0,0,0,0,0,0
1.650000000,1.570000000,1.580000000,1.26057403565E+18,170835.65,38.0163432256947,-122.013288879841,0.100000001490116,0.00342087723191523,-0.00689464920160943,-6.174452806893E-05,0,0.00689492567037528,8,RTK Integer (6),RTK Integer (6),,340.000775969306,0,0,,0,0,0,0,0,0,0,0,0,0,0,0
1.660000000,1.580000000,1.590000000,1.26057403566E+18,170835.66,38.0163432256947,-122.013288879841,0.100000001490116,0.00347244104793282,0.00341744010900859,-3.32129694447657E-05,0,0.00341760149812701,8,RTK Integer (6),RTK Integer (6),,340.000775969306,0,0,,0,0,0,0,0,0,0,0,0,0,0,0
1.670000000,1.590000000,1.600000000,1.26057403567E+18,170835.67,38.0163432256947,-122.013288879841,0.100000001490116,0.00352400363460137,-0.00689464920160943,-6.174452806893E-05,0,0.00689492567037528,8,RTK Integer (6),RTK Integer (6),,340.000775969306,0,0,,0,0,0,0,0,0,0,0,0,0,0,0
1.680000000,1.600000000,1.610000000,1.26057403568E+18,170835.68,38.0163432256947,-122.013288879841,0.100000001490116,0.00357556622126992,0.00341744010900859,-3.32129694447657E-05,0,0.00341760149812701,8,RTK Integer (6),RTK Integer (6),,340.000775969306,0,0,,0,0,0,0,0,0,0,0,0,0,0,0
1.690000000,1.610000000,1.620000000,1.26057403569E+18,170835.69,38.0163432256947,-122.013288879841,0.100000001490116,0.00359265380505432,0,0,0,0,8,RTK Integer (6),RTK Integer (6),,340.000775969306,0,0,,0,0,0,0,0,0,0,0,0,0,0,0
1.700000000,1.620000000,1.630000000,1.2605740357E+18,170835.7,38.0163432256947,-122.013288879841,0.100000001490116,0.00360119800435636,-0.0017087200545043,1.66064847223828E-05,0,0.00170880074906351,8,RTK Integer (6),RTK Integer (6),,340.000775969306,0,0,,0,0,0,0,0,0,0,0,0,0,0,0
1.710000000,1.630000000,1.640000000,1.26057403571E+18,170835.71,38.0163432256947,-122.013288879841,0.100000001490116,0.00362682999114772,0.00341744010900859,-3.32129694447657E-05,0,0.00341760149812701,8,RTK Integer (6),RTK Integer (6),,340.000775969306,0,0,,0,0,0,0,0,0,0,0,0,0,0,0
1.720000000,1.640000000,1.650000000,1.26057403572E+18,170835.72,38.0163432256947,-122.013288879841,0.100000001490116,0.0036610059735362,0.00341744010900859,-3.32129694447657E-05,0,0.00341760149812701,8,RTK Integer (6),RTK Integer (6),,340.000775969306,0,0,,0,0,0,0,0,0,0,0,0,0,0,0
1.730000000,1.650000000,1.660000000,1.26057403573E+18,170835.73,38.0163432256947,-122.013288879841,0.100000001490116,0.00369518114110499,0.00341744010900859,-3.32129694447657E-05,0,0.00341760149812701,8,RTK Integer (6),RTK Integer (6),,340.000775969306,0,0,,0,0,0,0,0,0,0,0,0,0,0,0
1.740000000,1.660000000,1.670000000,1.26057403574E+18,170835.74,38.0163432256947,-122.013288879841,0.100000001490116,0.00372081373901112,0.0017087200545043,-1.66064847223828E-05,0,0.00170880074906351,8,RTK Integer (6),RTK Integer (6),,340.000775969306,0,0,,0,0,0,0,0,0,0,0,0,0,0,0
1.750000000,1.670000000,1.680000000,1.26057403575E+18,170835.75,38.0163432256947,-122.013288879841,0.100000001490116,0.00372935793831317,0,0,0,0,8,RTK Integer (6),RTK Integer (6),,340.000775969306,0,0,,0,0,0,0,0,0,0,0,0,0,0,0
1.760000000,1.680000000,1.690000000,1.26057403576E+18,170835.76,38.0163432256947,-122.013288879841,0.100000001490116,0.00372935793831317,0,0,0,0,8,RTK Integer (6),RTK Integer (6),,340.000775969306,0,0,,0,0,0,0,0,0,0,0,0,0,0,0
1.770000000,1.690000000,1.700000000,1.26057403577E+18,170835.77,38.0163432256947,-122.013288879841,0.100000001490116,0.00374644592950741,0.00341744010900859,-3.32129694447657E-05,0,0.00341760149812701,8,RTK Integer (6),RTK Integer (6),,340.000775969306,0,0,,0,0,0,0,0,0,0,0,0,0,0,0
1.780000000,1.700000000,1.710000000,1.26057403578E+18,170835.78,38.0163432256947,-122.013288879841,0.100000001490116,0.00377207791629877,0.0017087200545043,-1.66064847223828E-05,0,0.00170880074906351,8,RTK Integer (6),RTK Integer (6),,340.000775969306,0,0,,0,0,0,0,0,0,0,0,0,0,0,0
1.790000000,1.710000000,1.720000000,1.26057403579E+18,170835.79,38.0163432256947,-122.013288879841,0.100000001490116,0.0037977105142049,0.00341744010900859,-3.32129694447657E-05,0,0.00341760149812701,8,RTK Integer (6),RTK Integer (6),,340.000775969306,0,0,,0,0,0,0,0,0,0,0,0,0,0,0
1.800000000,1.720000000,1.730000000,1.2605740358E+18,170835.8,38.0163432256947,-122.013288879841,0.100000001490116,0.00384042947366589,0.00512616016351289,-4.98194541671483E-05,0,0.00512640224719052,8,RTK Integer (6),RTK Integer (6),,340.000775969306,0,0,,0,0,0,0,0,0,0,0,0,0,0,0
1.810000000,1.730000000,1.740000000,1.26057403581E+18,170835.81,38.0163432256947,-122.013288879841,0.100000001490116,0.00388314945165149,-0.00341744010900859,3.32129694447657E-05,0,0.00341760149812701,8,RTK Integer (6),RTK Integer (6),,340.000775969306,0,0,,0,0,0,0,0,0,0,0,0,0,0,0
1.820000000,1.740000000,1.750000000,1.26057403582E+18,170835.82,38.0163432256947,-122.013288879841,0.100000001490116,0.00391732543403997,0.00341744010900859,-3.32129694447657E-05,0,0.00341760149812701,8,RTK Integer (6),RTK Integer (6),,340.000775969306,0,0,,0,0,0,0,0,0,0,0,0,0,0,0
1.830000000,1.750000000,1.760000000,1.26057403583E+18,170835.83,38.0163432256947,-122.013288879841,0.100000001490116,0.00394295803194611,0.0017087200545043,-1.66064847223828E-05,0,0.00170880074906351,8,RTK Integer (6),RTK Integer (6),,340.000775969306,0,0,,0,0,0,0,0,0,0,0,0,0,0,0
1.840000000,1.760000000,1.770000000,1.26057403584E+18,170835.84,38.0163432256947,-122.013288879841,0.100000001490116,0.0039600456157305,0.0017087200545043,-1.66064847223828E-05,0,0.00170880074906351,8,RTK Integer (6),RTK Integer (6),,340.000775969306,0,0,,0,0,0,0,0,0,0,0,0,0,0,0
1.850000000,1.770000000,1.780000000,1.26057403585E+18,170835.85,38.0163432256947,-122.013288879841,0.100000001490116,0.00396858961132762,0,0,0,0,8,RTK Integer (6),RTK Integer (6),,340.000775969306,0,0,,0,0,0,0,0,0,0,0,0,0,0,0
1.860000000,1.780000000,1.790000000,1.26057403586E+18,170835.86,38.0163432256947,-122.013288879841,0.100000001490116,0.00397713360692474,-0.0017087200545043,1.66064847223828E-05,0,0.00170880074906351,8,RTK Integer (6),RTK Integer (6),,340.000775969306,0,0,,0,0,0,0,0,0,0,0,0,0,0,0
1.870000000,1.790000000,1.800000000,1.26057403587E+18,170835.87,38.0163432256947,-122.013288879841,0.100000001490116,0.00398567780622679,0,0,0,0,8,RTK Integer (6),RTK Integer (6),,340.000775969306,0,0,,0,0,0,0,0,0,0,0,0,0,0,0
1.880000000,1.800000000,1.810000000,1.26057403588E+18,170835.88,38.0163432256947,-122.013288879841,0.100000001490116,0.00400276579742103,-0.00341744010900859,3.32129694447657E-05,0,0.00341760149812701,8,RTK Integer (6),RTK Integer (6),,340.000775969306,0,0,,0,0,0,0,0,0,0,0,0,0,0,0
1.890000000,1.810000000,1.820000000,1.26057403589E+18,170835.89,38.0163432256947,-122.013288879841,0.100000001490116,0.00401985338120542,0,0,0,0,8,RTK Integer (6),RTK Integer (6),,340.000775969306,0,0,,0,0,0,0,0,0,0,0,0,0,0,0
1.900000000,1.820000000,1.830000000,1.2605740359E+18,170835.9,38.0163432256947,-122.013288879841,0.100000001490116,0.00403694177980951,0.00341744010900859,-3.32129694447657E-05,0,0.00341760149812701,8,RTK Integer (6),RTK Integer (6),,340.000775969306,0,0,,0,0,0,0,0,0,0,0,0,0,0,0
1.910000000,1.830000000,1.840000000,1.26057403591E+18,170835.91,38.0163432256947,-122.013288879841,0.100000001490116,0.00406257376660087,-0.0017087200545043,1.66064847223828E-05,0,0.00170880074906351,8,RTK Integer (6),RTK Integer (6),,340.000775969306,0,0,,0,0,0,0,0,0,0,0,0,0,0,0
1.920000000,1.840000000,1.850000000,1.26057403592E+18,170835.92,38.0163432256947,-122.013288879841,0.100000001490116,0.00407966175779511,0.0017087200545043,-1.66064847223828E-05,0,0.00170880074906351,8,RTK Integer (6),RTK Integer (6),,340.000775969306,0,0,,0,0,0,0,0,0,0,0,0,0,0,0
1.930000000,1.850000000,1.860000000,1.26057403593E+18,170835.93,38.0163432256947,-122.013288879841,0.100000001490116,0.00409674934157951,0.0017087200545043,-1.66064847223828E-05,0,0.00170880074906351,8,RTK Integer (6),RTK Integer (6),,340.000775969306,0,0,,0,0,0,0,0,0,0,0,0,0,0,0
1.940000000,1.860000000,1.870000000,1.26057403594E+18,170835.94,38.0163432256947,-122.013288879841,0.100000001490116,0.00412238193948564,-0.00341744010900859,3.32129694447657E-05,0,0.00341760149812701,8,RTK Integer (6),RTK Integer (6),,340.000775969306,0,0,,0,0,0,0,0,0,0,0,0,0,0,0
1.950000000,1.870000000,1.880000000,1.26057403595E+18,170835.95,38.0163432256947,-122.013288879841,0.100000001490116,0.004148013926277,0.0017087200545043,-1.66064847223828E-05,0,0.00170880074906351,8,RTK Integer (6),RTK Integer (6),,340.000775969306,0,0,,0,0,0,0,0,0,0,0,0,0,0,0
1.960000000,1.880000000,1.890000000,1.26057403596E+18,170835.96,38.0163432256947,-122.013288879841,0.100000001490116,0.00416510191747124,-0.0017087200545043,1.66064847223828E-05,0,0.00170880074906351,8,RTK Integer (6),RTK Integer (6),,340.000775969306,0,0,,0,0,0,0,0,0,0,0,0,0,0,0
1.970000000,1.890000000,1.900000000,1.26057403597E+18,170835.97,38.0163432256947,-122.013288879841,0.100000001490116,0.00420811948289856,0.00689464920160943,6.174452806893E-05,0,0.00689492567037528,8,RTK Integer (6),RTK Integer (6),,340.000775969306,0,0,,0,0,0,0,0,0,0,0,0,0,0,0
1.980000000,1.900000000,1.910000000,1.26057403598E+18,170835.98,38.0163432256947,-122.013288879841,0.100000001490116,0.00424259490031206,0,0,0,0,8,RTK Integer (6),RTK Integer (6),,340.000775969306,0,0,,0,0,0,0,0,0,0,0,0,0,0,0
1.990000000,1.910000000,1.920000000,1.26057403599E+18,170835.99,38.0163432256947,-122.013288879841,0.100000001490116,0.00425113889590918,0.0017087200545043,-1.66064847223828E-05,0,0.00170880074906351,8,RTK Integer (6),RTK Integer (6),,340.000775969306,0,0,,0,0,0,0,0,0,0,0,0,0,0,0
2.000000000,1.920000000,1.930000000,1.260574036E+18,170836,38.0163432256947,-122.013288879841,0.100000001490116,0.0042596828915063,0,0,0,0,8,RTK Integer (6),RTK Integer (6),,340.000775969306,0,0,,0,0,0,0,0,0,0,0,0,0,0,0
2.010000000,1.930000000,1.940000000,1.26057403601E+18,170836.01,38.0163432256947,-122.013288879841,0.100000001490116,0.0042596828915063,0,0,0,0,8,RTK Integer (6),RTK Integer (6),,340.000775969306,0,0,,0,0,0,0,0,0,0,0,0,0,0,0
2.020000000,1.940000000,1.950000000,1.26057403602E+18,170836.02,38.0163432256947,-122.013288879841,0.100000001490116,0.0042596828915063,0,0,0,0,8,RTK Integer (6),RTK Integer (6),,340.000775969306,0,0,,0,0,0,0,0,0,0,0,0,0,0,0
2.030000000,1.950000000,1.960000000,1.26057403603E+18,170836.03,38.0163432256947,-122.013288879841,0.100000001490116,0.0042596828915063,0,0,0,0,8,RTK Integer (6),RTK Integer (6),,340.000775969306,0,0,,0,0,0,0,0,0,0,0,0,0,0,0
2.040000000,1.960000000,1.970000000,1.26057403604E+18,170836.04,38.0163432256947,-122.013288879841,0.100000001490116,0.0042596828915063,0,0,0,0,8,RTK Integer (6),RTK Integer (6),,340.000775969306,0,0,,0,0,0,0,0,0,0,0,0,0,0,0
2.050000000,1.970000000,1.980000000,1.26057403605E+18,170836.05,38.0163432256947,-122.013288879841,0.100000001490116,0.00426822688710342,-0.0017087200545043,1.66064847223828E-05,0,0.00170880074906351,8,RTK Integer (6),RTK Integer (6),,340.000775969306,0,0,,0,0,0,0,0,0,0,0,0,0,0,0
2.060000000,1.980000000,1.990000000,1.26057403606E+18,170836.06,38.0163432256947,-122.013288879841,0.100000001490116,0.00429385887389478,0.00341744010900859,-3.32129694447657E-05,0,0.00341760149812701,8,RTK Integer (6),RTK Integer (6),,340.000775969306,0,0,,0,0,0,0,0,0,0,0,0,0,0,0
2.070000000,1.990000000,2.000000000,1.26057403607E+18,170836.07,38.0163432256947,-122.013288879841,0.100000001490116,0.00432803567110296,0.00341744010900859,-3.32129694447657E-05,0,0.00341760149812701,8,RTK Integer (6),RTK Integer (6),,340.000775969306,0,0,,0,0,0,0,0,0,0,0,0,0,0,0
2.080000000,2.000000000,2.010000000,1.26057403608E+18,170836.08,38.0163432256947,-122.013288879841,0.100000001490116,0.00435366704677955,0.0017087200545043,-1.66064847223828E-05,0,0.00170880074906351,8,RTK Integer (6),RTK Integer (6),,340.000775969306,0,0,,0,0,0,0,0,0,0,0,0,0,0,0
2.090000000,2.010000000,2.020000000,1.26057403609E+18,170836.09,38.0163432256947,-122.013288879841,0.100000001490116,0.00437929903357091,-0.00341744010900859,3.32129694447657E-05,0,0.00341760149812701,8,RTK Integer (6),RTK Integer (6),,340.000775969306,0,0,,0,0,0,0,0,0,0,0,0,0,0,0
2.100000000,2.020000000,2.030000000,1.2605740361E+18,170836.1,38.0163432256947,-122.013288879841,0.100000001490116,0.00439638702476515,0,0,0,0,8,RTK Integer (6),RTK Integer (6),,340.000775969306,0,0,,0,0,0,0,0,0,0,0,0,0,0,0
2.110000000,2.030000000,2.040000000,1.26057403611E+18,170836.11,38.0163432256947,-122.013288879841,0.100000001490116,0.00441347542336924,-0.00341744010900859,3.32129694447657E-05,0,0.00341760149812701,8,RTK Integer (6),RTK Integer (6),,340.000775969306,0,0,,0,0,0,0,0,0,0,0,0,0,0,0
2.120000000,2.040000000,2.050000000,1.26057403612E+18,170836.12,38.0163432256947,-122.013288879841,0.100000001490116,0.00443056300715364,0,0,0,0,8,RTK Integer (6),RTK Integer (6),,340.000775969306,0,0,,0,0,0,0,0,0,0,0,0,0,0,0
2.130000000,2.050000000,2.060000000,1.26057403613E+18,170836.13,38.0163432256947,-122.013288879841,0.100000001490116,0.00443056300715364,0,0,0,0,8,RTK Integer (6),RTK Integer (6),,340.000775969306,0,0,,0,0,0,0,0,0,0,0,0,0,0,0
2.140000000,2.060000000,2.070000000,1.26057403614E+18,170836.14,38.0163432256947,-122.013288879841,0.100000001490116,0.00443910720645568,-0.0017087200545043,1.66064847223828E-05,0,0.00170880074906351,8,RTK Integer (6),RTK Integer (6),,340.000775969306,0,0,,0,0,0,0,0,0,0,0,0,0,0,0
2.150000000,2.070000000,2.080000000,1.26057403615E+18,170836.15,38.0163432256947,-122.013288879841,0.100000001490116,0.00446473919324704,-0.00341744010900859,3.32129694447657E-05,0,0.00341760149812701,8,RTK Integer (6),RTK Integer (6),,340.000775969306,0,0,,0,0,0,0,0,0,0,0,0,0,0,0
2.160000000,2.080000000,2.090000000,1.26057403616E+18,170836.16,38.0163432256947,-122.013288879841,0.100000001490116,0.0044903711800384,-0.0017087200545043,1.66064847223828E-05,0,0.00170880074906351,8,RTK Integer (6),RTK Integer (6),,340.000775969306,0,0,,0,0,0,0,0,0,0,0,0,0,0,0
2.170000000,2.090000000,2.100000000,1.26057403617E+18,170836.17,38.0163432256947,-122.013288879841,0.100000001490116,0.0045074587638228,-0.0017087200545043,1.66064847223828E-05,0,0.00170880074906351,8,RTK Integer (6),RTK Integer (6),,340.000775969306,0,0,,0,0,0,0,0,0,0,0,0,0,0,0
2.180000000,2.100000000,2.110000000,1.26057403618E+18,170836.18,38.0163432256947,-122.013288879841,0.100000001490116,0.00451600296312484,0,0,0,0,8,RTK Integer (6),RTK Integer (6),,340.000775969306,0,0,,0,0,0,0,0,0,0,0,0,0,0,0
2.190000000,2.110000000,2.120000000,1.26057403619E+18,170836.19,38.0163432256947,-122.013288879841,0.100000001490116,0.00451600296312484,0,0,0,0,8,RTK Integer (6),RTK Integer (6),,340.000775969306,0,0,,0,0,0,0,0,0,0,0,0,0,0,0
2.200000000,2.120000000,2.130000000,1.2605740362E+18,170836.2,38.0163432256947,-122.013288879841,0.100000001490116,0.00451600296312484,0,0,0,0,8,RTK Integer (6),RTK Integer (6),,340.000775969306,0,0,,0,0,0,0,0,0,0,0,0,0,0,0
2.210000000,2.130000000,2.140000000,1.26057403621E+18,170836.21,38.0163432256947,-122.013288879841,0.100000001490116,0.00452454675501704,0.0017087200545043,-1.66064847223828E-05,0,0.00170880074906351,8,RTK Integer (6),RTK Integer (6),,340.000775969306,0,0,,0,0,0,0,0,0,0,0,0,0,0,0
2.220000000,2.140000000,2.150000000,1.26057403622E+18,170836.22,38.0163432256947,-122.013288879841,0.100000001490116,0.00455017935292317,0.00341744010900859,-3.32129694447657E-05,0,0.00341760149812701,8,RTK Integer (6),RTK Integer (6),,340.000775969306,0,0,,0,0,0,0,0,0,0,0,0,0,0,0
2.230000000,2.150000000,2.160000000,1.26057403623E+18,170836.23,38.0163432256947,-122.013288879841,0.100000001490116,0.00459289933090878,0.00512616016351289,-4.98194541671483E-05,0,0.00512640224719052,8,RTK Integer (6),RTK Integer (6),,340.000775969306,0,0,,0,0,0,0,0,0,0,0,0,0,0,0
2.240000000,2.160000000,2.170000000,1.26057403624E+18,170836.24,38.0163432256947,-122.013288879841,0.100000001490116,0.00463561930889438,-0.00341744010900859,3.32129694447657E-05,0,0.00341760149812701,8,RTK Integer (6),RTK Integer (6),,340.000775969306,0,0,,0,0,0,0,0,0,0,0,0,0,0,0
2.250000000,2.170000000,2.180000000,1.26057403625E+18,170836.25,38.0163432256947,-122.013288879841,0.100000001490116,0.00466125068457097,-0.0017087200545043,1.66064847223828E-05,0,0.00170880074906351,8,RTK Integer (6),RTK Integer (6),,340.000775969306,0,0,,0,0,0,0,0,0,0,0,0,0,0,0
2.260000000,2.180000000,2.190000000,1.26057403626E+18,170836.26,38.0163432256947,-122.013288879841,0.100000001490116,0.00466979488387301,0,0,0,0,8,RTK Integer (6),RTK Integer (6),,340.000775969306,0,0,,0,0,0,0,0,0,0,0,0,0,0,0
2.270000000,2.190000000,2.200000000,1.26057403627E+18,170836.27,38.0163432256947,-122.013288879841,0.100000001490116,0.00467833908317506,-0.0017087200545043,1.66064847223828E-05,0,0.00170880074906351,8,RTK Integer (6),RTK Integer (6),,340.000775969306,0,0,,0,0,0,0,0,0,0,0,0,0,0,0
2.280000000,2.200000000,2.210000000,1.26057403628E+18,170836.28,38.0163432256947,-122.013288879841,0.100000001490116,0.00470397045885165,-0.00341744010900859,3.32129694447657E-05,0,0.00341760149812701,8,RTK Integer (6),RTK Integer (6),,340.000775969306,0,0,,0,0,0,0,0,0,0,0,0,0,0,0
2.290000000,2.210000000,2.220000000,1.26057403629E+18,170836.29,38.0163432256947,-122.013288879841,0.100000001490116,0.00472960244564301,0.0017087200545043,-1.66064847223828E-05,0,0.00170880074906351,8,RTK Integer (6),RTK Integer (6),,340.000775969306,0,0,,0,0,0,0,0,0,0,0,0,0,0,0
