Time from start of file (s),Time from initialisation (s),Time from start of region (s),Time (),Seconds from midnight Sunday (),Latitude (deg),Longitude (deg),Altitude (m),Distance horizontal (m),Velocity forward (m/s),Velocity lateral (m/s),Velocity down (m/s),Speed horizontal (m/s),Number of GPS satellites used (),GPS position mode (),GPS velocity mode (),GPS dual antenna attitude mode (),Heading (deg),Pitch (deg),Roll (deg),Slip angle (deg),Angular rate forward (deg/s),Angular rate lateral (deg/s),Angular rate down (deg/s),Angular rate Xv (deg/s),Angular rate Yv (deg/s),Angular rate Zv (deg/s),Acceleration forward (m/s²),Acceleration lateral (m/s²),Acceleration down (m/s²),Acceleration Xv (m/s²),Acceleration Yv (m/s²),Acceleration Zv (m/s²)
0.320000000,-0.010000000,0.000000000,1.26057444432E+18,171244.32,38.0163946419347,-122.013312633518,0.100000001490116,0,0,0,0,0,8,RTK Integer (6),RTK Integer (6),,340.000775969306,0,0,,0,0,0,0,0,0,0,0,0,0,0,0
0.330000000,0.000000000,0.010000000,1.26057444433E+18,171244.33,38.0163946419347,-122.013312633518,0.100000001490116,8.5439955971206E-06,-0.0017087200545043,1.66064847223828E-05,0,0.00170880074906351,8,RTK Integer (6),RTK Integer (6),,340.000775969306,0,0,,0,0,0,0,0,0,0,0,0,0,0,0
0.340000000,0.010000000,0.020000000,1.26057444434E+18,171244.34,38.0163946419347,-122.013312633518,0.100000001490116,3.41759823884824E-05,0.00341744010900859,-3.32129694447657E-05,0,0.00341760149812701,8,RTK Integer (6),RTK Integer (6),,340.000775969306,0,0,,0,0,0,0,0,0,0,0,0,0,0,0
0.350000000,0.020000000,0.030000000,1.26057444435E+18,171244.35,38.0163946419347,-122.013312633518,0.100000001490116,5.9808580294614E-05,-0.0017087200545043,1.66064847223828E-05,0,0.00170880074906351,8,RTK Integer (6),RTK Integer (6),,340.000775969306,0,0,,0,0,0,0,0,0,0,0,0,0,0,0
0.360000000,0.030000000,0.040000000,1.26057444436E+18,171244.36,38.0163946410896,-122.013312633127,0.100000001490116,8.5439955971206E-05,-0.00341744010900859,3.32129694447657E-05,0,0.00341760149812701,8,RTK Integer (6),RTK Integer (6),,340.000775969306,0,0,,0,0,0,0,0,0,0,0,0,0,0,0
0.370000000,0.040000000,0.050000000,1.26057444437E+18,171244.37,38.0163946419347,-122.013312633518,0.100000001490116,0.000102527947165447,0,0,0,0,8,RTK Integer (6),RTK Integer (6),,340.000775969306,0,0,,0,0,0,0,0,0,0,0,0,0,0,0
0.380000000,0.050000000,0.060000000,1.26057444438E+18,171244.38,38.0163946419347,-122.013312633518,0.100000001490116,0.000119616345769535,0.00341744010900859,-3.32129694447657E-05,0,0.00341760149812701,8,RTK Integer (6),RTK Integer (6),,340.000775969306,0,0,,0,0,0,0,0,0,0,0,0,0,0,0
0.390000000,0.060000000,0.070000000,1.26057444439E+18,171244.39,38.0163946410896,-122.013312633127,0.100000001490116,0.000171178932438085,-0.00689464920160943,-6.174452806893E-05,0,0.00689492567037528,8,RTK Integer (6),RTK Integer (6),,340.000775969306,0,0,,0,0,0,0,0,0,0,0,0,0,0,0
0.400000000,0.070000000,0.080000000,1.2605744444E+18,171244.4,38.0163946419347,-122.013312633518,0.100000001490116,0.000222741519106635,0.00341744010900859,-3.32129694447657E-05,0,0.00341760149812701,8,RTK Integer (6),RTK Integer (6),,340.000775969306,0,0,,0,0,0,0,0,0,0,0,0,0,0,0
0.410000000,0.080000000,0.090000000,1.26057444441E+18,171244.41,38.0163946419347,-122.013312633518,0.100000001490116,0.00023982910289103,0,0,0,0,8,RTK Integer (6),RTK Integer (6),,340.000775969306,0,0,,0,0,0,0,0,0,0,0,0,0,0,0
0.420000000,0.090000000,0.100000000,1.26057444442E+18,171244.42,38.0163946419347,-122.013312633518,0.100000001490116,0.000274304520304529,0.00689464920160943,6.174452806893E-05,0,0.00689492567037528,8,RTK Integer (6),RTK Integer (6),,340.000775969306,0,0,,0,0,0,0,0,0,0,0,0,0,0,0
0.430000000,0.100000000,0.110000000,1.26057444443E+18,171244.43,38.0163946419347,-122.013312633518,0.100000001490116,0.000343253711253147,0.00689464920160943,6.174452806893E-05,0,0.00689492567037528,8,RTK Integer (6),RTK Integer (6),,340.000775969306,0,0,,0,0,0,0,0,0,0,0,0,0,0,0
0.440000000,0.110000000,0.120000000,1.26057444444E+18,171244.44,38.0163946419347,-122.013312633518,0.100000001490116,0.000377728306727455,0,0,0,0,8,RTK Integer (6),RTK Integer (6),,340.000775969306,0,0,,0,0,0,0,0,0,0,0,0,0,0,0
0.450000000,0.120000000,0.130000000,1.26057444445E+18,171244.45,38.0163946419347,-122.013312633518,0.100000001490116,0.000386272098619653,0.0017087200545043,-1.66064847223828E-05,0,0.00170880074906351,8,RTK Integer (6),RTK Integer (6),,340.000775969306,0,0,,0,0,0,0,0,0,0,0,0,0,0,0
0.460000000,0.130000000,0.140000000,1.26057444446E+18,171244.46,38.0163946419347,-122.013312633518,0.100000001490116,0.00040336049722374,-0.0017087200545043,1.66064847223828E-05,0,0.00170880074906351,8,RTK Integer (6),RTK Integer (6),,340.000775969306,0,0,,0,0,0,0,0,0,0,0,0,0,0,0
0.470000000,0.140000000,0.150000000,1.26057444447E+18,171244.47,38.0163946419347,-122.013312633518,0.100000001490116,0.000420448488417982,-0.0017087200545043,1.66064847223828E-05,0,0.00170880074906351,8,RTK Integer (6),RTK Integer (6),,340.000775969306,0,0,,0,0,0,0,0,0,0,0,0,0,0,0
0.480000000,0.150000000,0.160000000,1.26057444448E+18,171244.48,38.0163946410896,-122.013312633127,0.100000001490116,0.000446080475209343,-0.00341744010900859,3.32129694447657E-05,0,0.00341760149812701,8,RTK Integer (6),RTK Integer (6),,340.000775969306,0,0,,0,0,0,0,0,0,0,0,0,0,0,0
0.490000000,0.160000000,0.170000000,1.26057444449E+18,171244.49,38.0163946419347,-122.013312633518,0.100000001490116,0.000471711850885935,-0.0017087200545043,1.66064847223828E-05,0,0.00170880074906351,8,RTK Integer (6),RTK Integer (6),,340.000775969306,0,0,,0,0,0,0,0,0,0,0,0,0,0,0
0.500000000,0.170000000,0.180000000,1.2605744445E+18,171244.5,38.0163946419347,-122.013312633518,0.100000001490116,0.000480256050187979,0,0,0,0,8,RTK Integer (6),RTK Integer (6),,340.000775969306,0,0,,0,0,0,0,0,0,0,0,0,0,0,0
0.510000000,0.180000000,0.190000000,1.26057444451E+18,171244.51,38.0163946419347,-122.013312633518,0.100000001490116,0.000497344448792067,0.00341744010900859,-3.32129694447657E-05,0,0.00341760149812701,8,RTK Integer (6),RTK Integer (6),,340.000775969306,0,0,,0,0,0,0,0,0,0,0,0,0,0,0
0.520000000,0.190000000,0.200000000,1.26057444452E+18,171244.52,38.0163946419347,-122.013312633518,0.100000001490116,0.000522975824468659,0.0017087200545043,-1.66064847223828E-05,0,0.00170880074906351,8,RTK Integer (6),RTK Integer (6),,340.000775969306,0,0,,0,0,0,0,0,0,0,0,0,0,0,0
0.530000000,0.200000000,0.210000000,1.26057444453E+18,171244.53,38.0163946419347,-122.013312633518,0.100000001490116,0.00053151982006578,0,0,0,0,8,RTK Integer (6),RTK Integer (6),,340.000775969306,0,0,,0,0,0,0,0,0,0,0,0,0,0,0
0.540000000,0.210000000,0.220000000,1.26057444454E+18,171244.54,38.0163946419347,-122.013312633518,0.100000001490116,0.00053151982006578,0,0,0,0,8,RTK Integer (6),RTK Integer (6),,340.000775969306,0,0,,0,0,0,0,0,0,0,0,0,0,0,0
0.550000000,0.220000000,0.230000000,1.26057444455E+18,171244.55,38.0163946419347,-122.013312633518,0.100000001490116,0.000540064019367823,0.0017087200545043,-1.66064847223828E-05,0,0.00170880074906351,8,RTK Integer (6),RTK Integer (6),,340.000775969306,0,0,,0,0,0,0,0,0,0,0,0,0,0,0
0.560000000,0.230000000,0.240000000,1.26057444456E+18,171244.56,38.0163946419347,-122.013312633518,0.100000001490116,0.000565695395044415,-0.00341744010900859,3.32129694447657E-05,0,0.00341760149812701,8,RTK Integer (6),RTK Integer (6),,340.000775969306,0,0,,0,0,0,0,0,0,0,0,0,0,0,0
0.570000000,0.240000000,0.250000000,1.26057444457E+18,171244.57,38.0163946419347,-122.013312633518,0.100000001490116,0.000582783386238657,0,0,0,0,8,RTK Integer (6),RTK Integer (6),,340.000775969306,0,0,,0,0,0,0,0,0,0,0,0,0,0,0
0.580000000,0.250000000,0.260000000,1.26057444458E+18,171244.58,38.0163946419347,-122.013312633518,0.100000001490116,0.000608415373030018,0.00512616016351289,-4.98194541671483E-05,0,0.00512640224719052,8,RTK Integer (6),RTK Integer (6),,340.000775969306,0,0,,0,0,0,0,0,0,0,0,0,0,0,0
0.590000000,0.260000000,0.270000000,1.26057444459E+18,171244.59,38.0163946419347,-122.013312633518,0.100000001490116,0.00063404797093615,0,0,0,0,8,RTK Integer (6),RTK Integer (6),,340.000775969306,0,0,,0,0,0,0,0,0,0,0,0,0,0,0
0.600000000,0.270000000,0.280000000,1.2605744446E+18,171244.6,38.0163946419347,-122.013312633518,0.100000001490116,0.00063404797093615,0,0,0,0,8,RTK Integer (6),RTK Integer (6),,340.000775969306,0,0,,0,0,0,0,0,0,0,0,0,0,0,0
0.610000000,0.280000000,0.290000000,1.26057444461E+18,171244.61,38.0163946419347,-122.013312633518,0.100000001490116,0.00063404797093615,0,0,0,0,8,RTK Integer (6),RTK Integer (6),,340.000775969306,0,0,,0,0,0,0,0,0,0,0,0,0,0,0
0.620000000,0.290000000,0.300000000,1.26057444462E+18,171244.62,38.0163946419347,-122.013312633518,0.100000001490116,0.000659679957727512,0.00512616016351289,-4.98194541671483E-05,0,0.00512640224719052,8,RTK Integer (6),RTK Integer (6),,340.000775969306,0,0,,0,0,0,0,0,0,0,0,0,0,0,0
0.630000000,0.300000000,0.310000000,1.26057444463E+18,171244.63,38.0163946410896,-122.013312633127,0.100000001490116,0.000702400954237731,-0.00341744010900859,3.32129694447657E-05,0,0.00341760149812701,8,RTK Integer (6),RTK Integer (6),,340.000775969306,0,0,,0,0,0,0,0,0,0,0,0,0,0,0
0.640000000,0.310000000,0.320000000,1.26057444464E+18,171244.64,38.0163946419347,-122.013312633518,0.100000001490116,0.000728032941029093,0.0017087200545043,-1.66064847223828E-05,0,0.00170880074906351,8,RTK Integer (6),RTK Integer (6),,340.000775969306,0,0,,0,0,0,0,0,0,0,0,0,0,0,0
0.650000000,0.320000000,0.330000000,1.26057444465E+18,171244.65,38.0163946419347,-122.013312633518,0.100000001490116,0.000753664316705685,0.00341744010900859,-3.32129694447657E-05,0,0.00341760149812701,8,RTK Integer (6),RTK Integer (6),,340.000775969306,0,0,,0,0,0,0,0,0,0,0,0,0,0,0
0.660000000,0.330000000,0.340000000,1.26057444466E+18,171244.66,38.0163946419347,-122.013312633518,0.100000001490116,0.000779296914611817,-0.0017087200545043,1.66064847223828E-05,0,0.00170880074906351,8,RTK Integer (6),RTK Integer (6),,340.000775969306,0,0,,0,0,0,0,0,0,0,0,0,0,0,0
0.670000000,0.340000000,0.350000000,1.26057444467E+18,171244.67,38.0163946419347,-122.013312633518,0.100000001490116,0.000796384905806058,0.0017087200545043,-1.66064847223828E-05,0,0.00170880074906351,8,RTK Integer (6),RTK Integer (6),,340.000775969306,0,0,,0,0,0,0,0,0,0,0,0,0,0,0
0.680000000,0.350000000,0.360000000,1.26057444468E+18,171244.68,38.0163946419347,-122.013312633518,0.100000001490116,0.00083056088819454,-0.00512616016351289,4.98194541671483E-05,0,0.00512640224719052,8,RTK Integer (6),RTK Integer (6),,340.000775969306,0,0,,0,0,0,0,0,0,0,0,0,0,0,0
0.690000000,0.360000000,0.370000000,1.26057444469E+18,171244.69,38.0163946410896,-122.013312633127,0.100000001490116,0.00089066603740625,-0.00689464920160943,-6.174452806893E-05,0,0.00689492567037528,8,RTK Integer (6),RTK Integer (6),,340.000775969306,0,0,,0,0,0,0,0,0,0,0,0,0,0,0
0.700000000,0.370000000,0.380000000,1.2605744447E+18,171244.7,38.0163946419347,-122.013312633518,0.100000001490116,0.00092514145481975,0,0,0,0,8,RTK Integer (6),RTK Integer (6),,340.000775969306,0,0,,0,0,0,0,0,0,0,0,0,0,0,0
0.710000000,0.380000000,0.390000000,1.26057444471E+18,171244.71,38.0163946419347,-122.013312633518,0.100000001490116,0.00093368545041687,0.0017087200545043,-1.66064847223828E-05,0,0.00170880074906351,8,RTK Integer (6),RTK Integer (6),,340.000775969306,0,0,,0,0,0,0,0,0,0,0,0,0,0,0
0.720000000,0.390000000,0.400000000,1.26057444472E+18,171244.72,38.0163946419347,-122.013312633518,0.100000001490116,0.000942229446013991,0,0,0,0,8,RTK Integer (6),RTK Integer (6),,340.000775969306,0,0,,0,0,0,0,0,0,0,0,0,0,0,0
0.730000000,0.400000000,0.410000000,1.26057444473E+18,171244.73,38.0163946419347,-122.013312633518,0.100000001490116,0.000942229446013991,0,0,0,0,8,RTK Integer (6),RTK Integer (6),,340.000775969306,0,0,,0,0,0,0,0,0,0,0,0,0,0,0
0.740000000,0.410000000,0.420000000,1.26057444474E+18,171244.74,38.0163946419347,-122.013312633518,0.100000001490116,0.000950773645316035,-0.0017087200545043,1.66064847223828E-05,0,0.00170880074906351,8,RTK Integer (6),RTK Integer (6),,340.000775969306,0,0,,0,0,0,0,0,0,0,0,0,0,0,0
0.750000000,0.420000000,0.430000000,1.26057444475E+18,171244.75,38.0163946419347,-122.013312633518,0.100000001490116,0.000959317844618079,0,0,0,0,8,RTK Integer (6),RTK Integer (6),,340.000775969306,0,0,,0,0,0,0,0,0,0,0,0,0,0,0
0.760000000,0.430000000,0.440000000,1.26057444476E+18,171244.76,38.0163946419347,-122.013312633518,0.100000001490116,0.000959317844618079,0,0,0,0,8,RTK Integer (6),RTK Integer (6),,340.000775969306,0,0,,0,0,0,0,0,0,0,0,0,0,0,0
0.770000000,0.440000000,0.450000000,1.26057444477E+18,171244.77,38.0163946419347,-122.013312633518,0.100000001490116,0.000959317844618079,0,0,0,0,8,RTK Integer (6),RTK Integer (6),,340.000775969306,0,0,,0,0,0,0,0,0,0,0,0,0,0,0
0.780000000,0.450000000,0.460000000,1.26057444478E+18,171244.78,38.0163946419347,-122.013312633518,0.100000001490116,0.000993792440092387,0.00689464920160943,6.174452806893E-05,0,0.00689492567037528,8,RTK Integer (6),RTK Integer (6),,340.000775969306,0,0,,0,0,0,0,0,0,0,0,0,0,0,0
0.790000000,0.460000000,0.470000000,1.26057444479E+18,171244.79,38.0163946419347,-122.013312633518,0.100000001490116,0.00102826785750589,0,0,0,0,8,RTK Integer (6),RTK Integer (6),,340.000775969306,0,0,,0,0,0,0,0,0,0,0,0,0,0,0
0.800000000,0.470000000,0.480000000,1.2605744448E+18,171244.8,38.0163946410896,-122.013312633127,0.100000001490116,0.001062741631041,-0.00689464920160943,-6.174452806893E-05,0,0.00689492567037528,8,RTK Integer (6),RTK Integer (6),,340.000775969306,0,0,,0,0,0,0,0,0,0,0,0,0,0,0
0.810000000,0.480000000,0.490000000,1.26057444481E+18,171244.81,38.0163946410896,-122.013312633127,0.100000001490116,0.00111430421770955,-0.00341744010900859,3.32129694447657E-05,0,0.00341760149812701,8,RTK Integer (6),RTK Integer (6),,340.000775969306,0,0,,0,0,0,0,0,0,0,0,0,0,0,0
0.820000000,0.490000000,0.500000000,1.26057444482E+18,171244.82,38.0163946419347,-122.013312633518,0.100000001490116,0.0011313922089038,0,0,0,0,8,RTK Integer (6),RTK Integer (6),,340.000775969306,0,0,,0,0,0,0,0,0,0,0,0,0,0,0
0.830000000,0.500000000,0.510000000,1.26057444483E+18,171244.83,38.0163946419347,-122.013312633518,0.100000001490116,0.00114848060750788,0.00341744010900859,-3.32129694447657E-05,0,0.00341760149812701,8,RTK Integer (6),RTK Integer (6),,340.000775969306,0,0,,0,0,0,0,0,0,0,0,0,0,0,0
0.840000000,0.510000000,0.520000000,1.26057444484E+18,171244.84,38.0163946419347,-122.013312633518,0.100000001490116,0.00118265577507667,0.00341744010900859,-3.32129694447657E-05,0,0.00341760149812701,8,RTK Integer (6),RTK Integer (6),,340.000775969306,0,0,,0,0,0,0,0,0,0,0,0,0,0,0
0.850000000,0.520000000,0.530000000,1.26057444485E+18,171244.85,38.0163946410896,-122.013312633127,0.100000001490116,0.00123421836174522,-0.00689464920160943,-6.174452806893E-05,0,0.00689492567037528,8,RTK Integer (6),RTK Integer (6),,340.000775969306,0,0,,0,0,0,0,0,0,0,0,0,0,0,0
0.860000000,0.530000000,0.540000000,1.26057444486E+18,171244.86,38.0163946419347,-122.013312633518,0.100000001490116,0.00126869295721953,0,0,0,0,8,RTK Integer (6),RTK Integer (6),,340.000775969306,0,0,,0,0,0,0,0,0,0,0,0,0,0,0
0.870000000,0.540000000,0.550000000,1.26057444487E+18,171244.87,38.0163946419347,-122.013312633518,0.100000001490116,0.00126869295721953,0,0,0,0,8,RTK Integer (6),RTK Integer (6),,340.000775969306,0,0,,0,0,0,0,0,0,0,0,0,0,0,0
0.880000000,0.550000000,0.560000000,1.26057444488E+18,171244.88,38.0163946419347,-122.013312633518,0.100000001490116,0.00127723695281665,0.0017087200545043,-1.66064847223828E-05,0,0.00170880074906351,8,RTK Integer (6),RTK Integer (6),,340.000775969306,0,0,,0,0,0,0,0,0,0,0,0,0,0,0
0.890000000,0.560000000,0.570000000,1.26057444489E+18,171244.89,38.0163946410896,-122.013312633127,0.100000001490116,0.00128578074470885,0,0,0,0,8,RTK Integer (6),RTK Integer (6),,340.000775969306,0,0,,0,0,0,0,0,0,0,0,0,0,0,0
0.900000000,0.570000000,0.580000000,1.2605744449E+18,171244.9,38.0163946419347,-122.013312633518,0.100000001490116,0.00128578074470885,0,0,0,0,8,RTK Integer (6),RTK Integer (6),,340.000775969306,0,0,,0,0,0,0,0,0,0,0,0,0,0,0
0.910000000,0.580000000,0.590000000,1.26057444491E+18,171244.91,38.0163946419347,-122.013312633518,0.100000001490116,0.00128578074470885,0,0,0,0,8,RTK Integer (6),RTK Integer (6),,340.000775969306,0,0,,0,0,0,0,0,0,0,0,0,0,0,0
0.920000000,0.590000000,0.600000000,1.26057444492E+18,171244.92,38.0163946419347,-122.013312633518,0.100000001490116,0.00130286873590309,0.00341744010900859,-3.32129694447657E-05,0,0.00341760149812701,8,RTK Integer (6),RTK Integer (6),,340.000775969306,0,0,,0,0,0,0,0,0,0,0,0,0,0,0
0.930000000,0.600000000,0.610000000,1.26057444493E+18,171244.93,38.0163946419347,-122.013312633518,0.100000001490116,0.00131995631968749,0,0,0,0,8,RTK Integer (6),RTK Integer (6),,340.000775969306,0,0,,0,0,0,0,0,0,0,0,0,0,0,0
0.940000000,0.610000000,0.620000000,1.26057444494E+18,171244.94,38.0163946419347,-122.013312633518,0.100000001490116,0.00131995631968749,0,0,0,0,8,RTK Integer (6),RTK Integer (6),,340.000775969306,0,0,,0,0,0,0,0,0,0,0,0,0,0,0
0.950000000,0.620000000,0.630000000,1.26057444495E+18,171244.95,38.0163946419347,-122.013312633518,0.100000001490116,0.00135443091516179,0.00689464920160943,6.174452806893E-05,0,0.00689492567037528,8,RTK Integer (6),RTK Integer (6),,340.000775969306,0,0,,0,0,0,0,0,0,0,0,0,0,0,0
0.960000000,0.630000000,0.640000000,1.26057444496E+18,171244.96,38.0163946419347,-122.013312633518,0.100000001490116,0.0013889055106361,0,0,0,0,8,RTK Integer (6),RTK Integer (6),,340.000775969306,0,0,,0,0,0,0,0,0,0,0,0,0,0,0
0.970000000,0.640000000,0.650000000,1.26057444497E+18,171244.97,38.0163946419347,-122.013312633518,0.100000001490116,0.0013889055106361,0,0,0,0,8,RTK Integer (6),RTK Integer (6),,340.000775969306,0,0,,0,0,0,0,0,0,0,0,0,0,0,0
0.980000000,0.650000000,0.660000000,1.26057444498E+18,171244.98,38.0163946419347,-122.013312633518,0.100000001490116,0.00139744970993815,-0.0017087200545043,1.66064847223828E-05,0,0.00170880074906351,8,RTK Integer (6),RTK Integer (6),,340.000775969306,0,0,,0,0,0,0,0,0,0,0,0,0,0,0
0.990000000,0.660000000,0.670000000,1.26057444499E+18,171244.99,38.0163946419347,-122.013312633518,0.100000001490116,0.00140599370553527,0,0,0,0,8,RTK Integer (6),RTK Integer (6),,340.000775969306,0,0,,0,0,0,0,0,0,0,0,0,0,0,0
1.000000000,0.670000000,0.680000000,1.260574445E+18,171245,38.0163946410896,-122.013312633127,0.100000001490116,0.00142308169672951,-0.00341744010900859,3.32129694447657E-05,0,0.00341760149812701,8,RTK Integer (6),RTK Integer (6),,340.000775969306,0,0,,0,0,0,0,0,0,0,0,0,0,0,0
1.010000000,0.680000000,0.690000000,1.26057444501E+18,171245.01,38.0163946419347,-122.013312633518,0.100000001490116,0.00145725767911799,0.00341744010900859,-3.32129694447657E-05,0,0.00341760149812701,8,RTK Integer (6),RTK Integer (6),,340.000775969306,0,0,,0,0,0,0,0,0,0,0,0,0,0,0
1.020000000,0.690000000,0.700000000,1.26057444502E+18,171245.02,38.0163946419347,-122.013312633518,0.100000001490116,0.00149997765710359,0.00512616016351289,-4.98194541671483E-05,0,0.00512640224719052,8,RTK Integer (6),RTK Integer (6),,340.000775969306,0,0,,0,0,0,0,0,0,0,0,0,0,0,0
1.030000000,0.700000000,0.710000000,1.26057444503E+18,171245.03,38.0163946419347,-122.013312633518,0.100000001490116,0.00153415445431177,-0.0017087200545043,1.66064847223828E-05,0,0.00170880074906351,8,RTK Integer (6),RTK Integer (6),,340.000775969306,0,0,,0,0,0,0,0,0,0,0,0,0,0,0
1.040000000,0.710000000,0.720000000,1.26057444504E+18,171245.04,38.0163946419347,-122.013312633518,0.100000001490116,0.00154269824620397,0,0,0,0,8,RTK Integer (6),RTK Integer (6),,340.000775969306,0,0,,0,0,0,0,0,0,0,0,0,0,0,0
1.050000000,0.720000000,0.730000000,1.26057444505E+18,171245.05,38.0163946419347,-122.013312633518,0.100000001490116,0.00154269824620397,0,0,0,0,8,RTK Integer (6),RTK Integer (6),,340.000775969306,0,0,,0,0,0,0,0,0,0,0,0,0,0,0
1.060000000,0.730000000,0.740000000,1.26057444506E+18,171245.06,38.0163946419347,-122.013312633518,0.100000001490116,0.00155124224180109,0.0017087200545043,-1.66064847223828E-05,0,0.00170880074906351,8,RTK Integer (6),RTK Integer (6),,340.000775969306,0,0,,0,0,0,0,0,0,0,0,0,0,0,0
1.070000000,0.740000000,0.750000000,1.26057444507E+18,171245.07,38.0163946419347,-122.013312633518,0.100000001490116,0.00155978644110313,0,0,0,0,8,RTK Integer (6),RTK Integer (6),,340.000775969306,0,0,,0,0,0,0,0,0,0,0,0,0,0,0
1.080000000,0.750000000,0.760000000,1.26057444508E+18,171245.08,38.0163946419347,-122.013312633518,0.100000001490116,0.00155978644110313,0,0,0,0,8,RTK Integer (6),RTK Integer (6),,340.000775969306,0,0,,0,0,0,0,0,0,0,0,0,0,0,0
1.090000000,0.760000000,0.770000000,1.26057444509E+18,171245.09,38.0163946419347,-122.013312633518,0.100000001490116,0.00156833043670025,0.0017087200545043,-1.66064847223828E-05,0,0.00170880074906351,8,RTK Integer (6),RTK Integer (6),,340.000775969306,0,0,,0,0,0,0,0,0,0,0,0,0,0,0
1.100000000,0.770000000,0.780000000,1.2605744451E+18,171245.1,38.0163946419347,-122.013312633518,0.100000001490116,0.00158541842789449,-0.0017087200545043,1.66064847223828E-05,0,0.00170880074906351,8,RTK Integer (6),RTK Integer (6),,340.000775969306,0,0,,0,0,0,0,0,0,0,0,0,0,0,0
1.110000000,0.780000000,0.790000000,1.26057444511E+18,171245.11,38.0163946419347,-122.013312633518,0.100000001490116,0.00161105102580062,0.00341744010900859,-3.32129694447657E-05,0,0.00341760149812701,8,RTK Integer (6),RTK Integer (6),,340.000775969306,0,0,,0,0,0,0,0,0,0,0,0,0,0,0
1.120000000,0.790000000,0.800000000,1.26057444512E+18,171245.12,38.0163946419347,-122.013312633518,0.100000001490116,0.00162813860958502,0,0,0,0,8,RTK Integer (6),RTK Integer (6),,340.000775969306,0,0,,0,0,0,0,0,0,0,0,0,0,0,0
1.130000000,0.800000000,0.810000000,1.26057444513E+18,171245.13,38.0163946419347,-122.013312633518,0.100000001490116,0.00163668260518214,0.0017087200545043,-1.66064847223828E-05,0,0.00170880074906351,8,RTK Integer (6),RTK Integer (6),,340.000775969306,0,0,,0,0,0,0,0,0,0,0,0,0,0,0
1.140000000,0.810000000,0.820000000,1.26057444514E+18,171245.14,38.0163946419347,-122.013312633518,0.100000001490116,0.00164522680448418,0,0,0,0,8,RTK Integer (6),RTK Integer (6),,340.000775969306,0,0,,0,0,0,0,0,0,0,0,0,0,0,0
1.150000000,0.820000000,0.830000000,1.26057444515E+18,171245.15,38.0163946410896,-122.013312633127,0.100000001490116,0.00166231479567842,-0.00341744010900859,3.32129694447657E-05,0,0.00341760149812701,8,RTK Integer (6),RTK Integer (6),,340.000775969306,0,0,,0,0,0,0,0,0,0,0,0,0,0,0
1.160000000,0.830000000,0.840000000,1.26057444516E+18,171245.16,38.0163946419347,-122.013312633518,0.100000001490116,0.00168794678246979,-0.0017087200545043,1.66064847223828E-05,0,0.00170880074906351,8,RTK Integer (6),RTK Integer (6),,340.000775969306,0,0,,0,0,0,0,0,0,0,0,0,0,0,0
1.170000000,0.840000000,0.850000000,1.26057444517E+18,171245.17,38.0163946419347,-122.013312633518,0.100000001490116,0.0017309643478971,0.00689464920160943,6.174452806893E-05,0,0.00689492567037528,8,RTK Integer (6),RTK Integer (6),,340.000775969306,0,0,,0,0,0,0,0,0,0,0,0,0,0,0
1.180000000,0.850000000,0.860000000,1.26057444518E+18,171245.18,38.0163946419347,-122.013312633518,0.100000001490116,0.00177398396461265,-0.0017087200545043,1.66064847223828E-05,0,0.00170880074906351,8,RTK Integer (6),RTK Integer (6),,340.000775969306,0,0,,0,0,0,0,0,0,0,0,0,0,0,0
1.190000000,0.860000000,0.870000000,1.26057444519E+18,171245.19,38.0163946419347,-122.013312633518,0.100000001490116,0.00179107195580689,-0.0017087200545043,1.66064847223828E-05,0,0.00170880074906351,8,RTK Integer (6),RTK Integer (6),,340.000775969306,0,0,,0,0,0,0,0,0,0,0,0,0,0,0
1.200000000,0.870000000,0.880000000,1.2605744452E+18,171245.2,38.0163946419347,-122.013312633518,0.100000001490116,0.00180815994700113,-0.0017087200545043,1.66064847223828E-05,0,0.00170880074906351,8,RTK Integer (6),RTK Integer (6),,340.000775969306,0,0,,0,0,0,0,0,0,0,0,0,0,0,0
1.210000000,0.880000000,0.890000000,1.26057444521E+18,171245.21,38.0163946419347,-122.013312633518,0.100000001490116,0.00183379132267772,0.00341744010900859,-3.32129694447657E-05,0,0.00341760149812701,8,RTK Integer (6),RTK Integer (6),,340.000775969306,0,0,,0,0,0,0,0,0,0,0,0,0,0,0
1.220000000,0.890000000,0.900000000,1.26057444522E+18,171245.22,38.0163946419347,-122.013312633518,0.100000001490116,0.00185942392058385,0.0017087200545043,-1.66064847223828E-05,0,0.00170880074906351,8,RTK Integer (6),RTK Integer (6),,340.000775969306,0,0,,0,0,0,0,0,0,0,0,0,0,0,0
1.230000000,0.900000000,0.910000000,1.26057444523E+18,171245.23,38.0163946419347,-122.013312633518,0.100000001490116,0.00187651191177809,0.0017087200545043,-1.66064847223828E-05,0,0.00170880074906351,8,RTK Integer (6),RTK Integer (6),,340.000775969306,0,0,,0,0,0,0,0,0,0,0,0,0,0,0
1.240000000,0.910000000,0.920000000,1.26057444524E+18,171245.24,38.0163946419347,-122.013312633518,0.100000001490116,0.00190214389856945,0.00341744010900859,-3.32129694447657E-05,0,0.00341760149812701,8,RTK Integer (6),RTK Integer (6),,340.000775969306,0,0,,0,0,0,0,0,0,0,0,0,0,0,0
1.250000000,0.920000000,0.930000000,1.26057444525E+18,171245.25,38.0163946419347,-122.013312633518,0.100000001490116,0.00192777527424605,0.0017087200545043,-1.66064847223828E-05,0,0.00170880074906351,8,RTK Integer (6),RTK Integer (6),,340.000775969306,0,0,,0,0,0,0,0,0,0,0,0,0,0,0
1.260000000,0.930000000,0.940000000,1.26057444526E+18,171245.26,38.0163946419347,-122.013312633518,0.100000001490116,0.00194486367285013,0.0017087200545043,-1.66064847223828E-05,0,0.00170880074906351,8,RTK Integer (6),RTK Integer (6),,340.000775969306,0,0,,0,0,0,0,0,0,0,0,0,0,0,0
1.270000000,0.940000000,0.950000000,1.26057444527E+18,171245.27,38.0163946419347,-122.013312633518,0.100000001490116,0.00197049627075627,-0.00341744010900859,3.32129694447657E-05,0,0.00341760149812701,8,RTK Integer (6),RTK Integer (6),,340.000775969306,0,0,,0,0,0,0,0,0,0,0,0,0,0,0
1.280000000,0.950000000,0.960000000,1.26057444528E+18,171245.28,38.0163946419347,-122.013312633518,0.100000001490116,0.00199612764643286,0.0017087200545043,-1.66064847223828E-05,0,0.00170880074906351,8,RTK Integer (6),RTK Integer (6),,340.000775969306,0,0,,0,0,0,0,0,0,0,0,0,0,0,0
1.290000000,0.960000000,0.970000000,1.26057444529E+18,171245.29,38.0163946419347,-122.013312633518,0.100000001490116,0.00202175963322422,-0.00341744010900859,3.32129694447657E-05,0,0.00341760149812701,8,RTK Integer (6),RTK Integer (6),,340.000775969306,0,0,,0,0,0,0,0,0,0,0,0,0,0,0
1.300000000,0.970000000,0.980000000,1.2605744453E+18,171245.3,38.0163946410896,-122.013312633127,0.100000001490116,0.00206447961120982,-0.00512616016351289,4.98194541671483E-05,0,0.00512640224719052,8,RTK Integer (6),RTK Integer (6),,340.000775969306,0,0,,0,0,0,0,0,0,0,0,0,0,0,0
1.310000000,0.980000000,0.990000000,1.26057444531E+18,171245.31,38.0163946419347,-122.013312633518,0.100000001490116,0.00210720060772004,-0.00341744010900859,3.32129694447657E-05,0,0.00341760149812701,8,RTK Integer (6),RTK Integer (6),,340.000775969306,0,0,,0,0,0,0,0,0,0,0,0,0,0,0
1.320000000,0.990000000,1.000000000,1.26057444532E+18,171245.32,38.0163946410896,-122.013312633127,0.100000001490116,0.00215876196503955,-0.00689464920160943,-6.174452806893E-05,0,0.00689492567037528,8,RTK Integer (6),RTK Integer (6),,340.000775969306,0,0,,0,0,0,0,0,0,0,0,0,0,0,0
1.330000000,1.000000000,1.010000000,1.26057444533E+18,171245.33,38.0163946419347,-122.013312633518,0.100000001490116,0.00220178055611098,0.0017087200545043,-1.66064847223828E-05,0,0.00170880074906351,8,RTK Integer (6),RTK Integer (6),,340.000775969306,0,0,,0,0,0,0,0,0,0,0,0,0,0,0
1.340000000,1.010000000,1.020000000,1.26057444534E+18,171245.34,38.0163946419347,-122.013312633518,0.100000001490116,0.00221886854730522,0.0017087200545043,-1.66064847223828E-05,0,0.00170880074906351,8,RTK Integer (6),RTK Integer (6),,340.000775969306,0,0,,0,0,0,0,0,0,0,0,0,0,0,0
1.350000000,1.020000000,1.030000000,1.26057444535E+18,171245.35,38.0163946410896,-122.013312633127,0.100000001490116,0.00224450114521136,-0.00341744010900859,3.32129694447657E-05,0,0.00341760149812701,8,RTK Integer (6),RTK Integer (6),,340.000775969306,0,0,,0,0,0,0,0,0,0,0,0,0,0,0
1.360000000,1.030000000,1.040000000,1.26057444536E+18,171245.36,38.0163946419347,-122.013312633518,0.100000001490116,0.00226158872899575,0,0,0,0,8,RTK Integer (6),RTK Integer (6),,340.000775969306,0,0,,0,0,0,0,0,0,0,0,0,0,0,0
1.370000000,1.040000000,1.050000000,1.26057444537E+18,171245.37,38.0163946419347,-122.013312633518,0.100000001490116,0.00227013272459287,0.0017087200545043,-1.66064847223828E-05,0,0.00170880074906351,8,RTK Integer (6),RTK Integer (6),,340.000775969306,0,0,,0,0,0,0,0,0,0,0,0,0,0,0
1.380000000,1.050000000,1.060000000,1.26057444538E+18,171245.38,38.0163946410896,-122.013312633127,0.100000001490116,0.002295765322499,-0.00341744010900859,3.32129694447657E-05,0,0.00341760149812701,8,RTK Integer (6),RTK Integer (6),,340.000775969306,0,0,,0,0,0,0,0,0,0,0,0,0,0,0
1.390000000,1.060000000,1.070000000,1.26057444539E+18,171245.39,38.0163946419347,-122.013312633518,0.100000001490116,0.00234732790916755,0.00689464920160943,6.174452806893E-05,0,0.00689492567037528,8,RTK Integer (6),RTK Integer (6),,340.000775969306,0,0,,0,0,0,0,0,0,0,0,0,0,0,0
1.400000000,1.070000000,1.080000000,1.2605744454E+18,171245.4,38.0163946419347,-122.013312633518,0.100000001490116,0.00238180250464186,0,0,0,0,8,RTK Integer (6),RTK Integer (6),,340.000775969306,0,0,,0,0,0,0,0,0,0,0,0,0,0,0
1.410000000,1.080000000,1.090000000,1.26057444541E+18,171245.41,38.0163946419347,-122.013312633518,0.100000001490116,0.00240743388031845,0.00512616016351289,-4.98194541671483E-05,0,0.00512640224719052,8,RTK Integer (6),RTK Integer (6),,340.000775969306,0,0,,0,0,0,0,0,0,0,0,0,0,0,0
1.420000000,1.090000000,1.100000000,1.26057444542E+18,171245.42,38.0163946419347,-122.013312633518,0.100000001490116,0.00244161067752663,-0.0017087200545043,1.66064847223828E-05,0,0.00170880074906351,8,RTK Integer (6),RTK Integer (6),,340.000775969306,0,0,,0,0,0,0,0,0,0,0,0,0,0,0
1.430000000,1.100000000,1.110000000,1.26057444543E+18,171245.43,38.0163946419347,-122.013312633518,0.100000001490116,0.00248462926859806,0.00689464920160943,6.174452806893E-05,0,0.00689492567037528,8,RTK Integer (6),RTK Integer (6),,340.000775969306,0,0,,0,0,0,0,0,0,0,0,0,0,0,0
1.440000000,1.110000000,1.120000000,1.26057444544E+18,171245.44,38.0163946419347,-122.013312633518,0.100000001490116,0.00251910386407237,0,0,0,0,8,RTK Integer (6),RTK Integer (6),,340.000775969306,0,0,,0,0,0,0,0,0,0,0,0,0,0,0
1.450000000,1.120000000,1.130000000,1.26057444545E+18,171245.45,38.0163946419347,-122.013312633518,0.100000001490116,0.00253619144785676,0.00341744010900859,-3.32129694447657E-05,0,0.00341760149812701,8,RTK Integer (6),RTK Integer (6),,340.000775969306,0,0,,0,0,0,0,0,0,0,0,0,0,0,0
1.460000000,1.130000000,1.140000000,1.26057444546E+18,171245.46,38.0163946419347,-122.013312633518,0.100000001490116,0.00255327984646085,0,0,0,0,8,RTK Integer (6),RTK Integer (6),,340.000775969306,0,0,,0,0,0,0,0,0,0,0,0,0,0,0
1.470000000,1.140000000,1.150000000,1.26057444547E+18,171245.47,38.0163946419347,-122.013312633518,0.100000001490116,0.00256182384205797,0.0017087200545043,-1.66064847223828E-05,0,0.00170880074906351,8,RTK Integer (6),RTK Integer (6),,340.000775969306,0,0,,0,0,0,0,0,0,0,0,0,0,0,0
1.480000000,1.150000000,1.160000000,1.26057444548E+18,171245.48,38.0163946419347,-122.013312633518,0.100000001490116,0.00257036783765509,0,0,0,0,8,RTK Integer (6),RTK Integer (6),,340.000775969306,0,0,,0,0,0,0,0,0,0,0,0,0,0,0
1.490000000,1.160000000,1.170000000,1.26057444549E+18,171245.49,38.0163946419347,-122.013312633518,0.100000001490116,0.00257036783765509,0,0,0,0,8,RTK Integer (6),RTK Integer (6),,340.000775969306,0,0,,0,0,0,0,0,0,0,0,0,0,0,0
1.500000000,1.170000000,1.180000000,1.2605744455E+18,171245.5,38.0163946419347,-122.013312633518,0.100000001490116,0.00257891203695713,0.0017087200545043,-1.66064847223828E-05,0,0.00170880074906351,8,RTK Integer (6),RTK Integer (6),,340.000775969306,0,0,,0,0,0,0,0,0,0,0,0,0,0,0
1.510000000,1.180000000,1.190000000,1.26057444551E+18,171245.51,38.0163946419347,-122.013312633518,0.100000001490116,0.00258745623625918,0,0,0,0,8,RTK Integer (6),RTK Integer (6),,340.000775969306,0,0,,0,0,0,0,0,0,0,0,0,0,0,0
1.520000000,1.190000000,1.200000000,1.26057444552E+18,171245.52,38.0163946419347,-122.013312633518,0.100000001490116,0.00258745623625918,0,0,0,0,8,RTK Integer (6),RTK Integer (6),,340.000775969306,0,0,,0,0,0,0,0,0,0,0,0,0,0,0
1.530000000,1.200000000,1.210000000,1.26057444553E+18,171245.53,38.0163946410896,-122.013312633127,0.100000001490116,0.00262193083173349,-0.00689464920160943,-6.174452806893E-05,0,0.00689492567037528,8,RTK Integer (6),RTK Integer (6),,340.000775969306,0,0,,0,0,0,0,0,0,0,0,0,0,0,0
1.540000000,1.210000000,1.220000000,1.26057444554E+18,171245.54,38.0163946419347,-122.013312633518,0.100000001490116,0.00268203741399916,0.00512616016351289,-4.98194541671483E-05,0,0.00512640224719052,8,RTK Integer (6),RTK Integer (6),,340.000775969306,0,0,,0,0,0,0,0,0,0,0,0,0,0,0
1.550000000,1.220000000,1.230000000,1.26057444555E+18,171245.55,38.0163946419347,-122.013312633518,0.100000001490116,0.00271621421120733,-0.0017087200545043,1.66064847223828E-05,0,0.00170880074906351,8,RTK Integer (6),RTK Integer (6),,340.000775969306,0,0,,0,0,0,0,0,0,0,0,0,0,0,0
1.560000000,1.230000000,1.240000000,1.26057444556E+18,171245.56,38.0163946419347,-122.013312633518,0.100000001490116,0.00273330179499173,0.0017087200545043,-1.66064847223828E-05,0,0.00170880074906351,8,RTK Integer (6),RTK Integer (6),,340.000775969306,0,0,,0,0,0,0,0,0,0,0,0,0,0,0
1.570000000,1.240000000,1.250000000,1.26057444557E+18,171245.57,38.0163946419347,-122.013312633518,0.100000001490116,0.00275893378178309,0.00341744010900859,-3.32129694447657E-05,0,0.00341760149812701,8,RTK Integer (6),RTK Integer (6),,340.000775969306,0,0,,0,0,0,0,0,0,0,0,0,0,0,0
1.580000000,1.250000000,1.260000000,1.26057444558E+18,171245.58,38.0163946419347,-122.013312633518,0.100000001490116,0.00277602177297733,0,0,0,0,8,RTK Integer (6),RTK Integer (6),,340.000775969306,0,0,,0,0,0,0,0,0,0,0,0,0,0,0
1.590000000,1.260000000,1.270000000,1.26057444559E+18,171245.59,38.0163946419347,-122.013312633518,0.100000001490116,0.00277602177297733,0,0,0,0,8,RTK Integer (6),RTK Integer (6),,340.000775969306,0,0,,0,0,0,0,0,0,0,0,0,0,0,0
1.600000000,1.270000000,1.280000000,1.2605744456E+18,171245.6,38.0163946419347,-122.013312633518,0.100000001490116,0.00277602177297733,0,0,0,0,8,RTK Integer (6),RTK Integer (6),,340.000775969306,0,0,,0,0,0,0,0,0,0,0,0,0,0,0
1.610000000,1.280000000,1.290000000,1.26057444561E+18,171245.61,38.0163946419347,-122.013312633518,0.100000001490116,0.00279310976417157,0.00341744010900859,-3.32129694447657E-05,0,0.00341760149812701,8,RTK Integer (6),RTK Integer (6),,340.000775969306,0,0,,0,0,0,0,0,0,0,0,0,0,0,0
1.620000000,1.290000000,1.300000000,1.26057444562E+18,171245.62,38.0163946419347,-122.013312633518,0.100000001490116,0.00282728574656005,0.00341744010900859,-3.32129694447657E-05,0,0.00341760149812701,8,RTK Integer (6),RTK Integer (6),,340.000775969306,0,0,,0,0,0,0,0,0,0,0,0,0,0,0
1.630000000,1.300000000,1.310000000,1.26057444563E+18,171245.63,38.0163946419347,-122.013312633518,0.100000001490116,0.00284437414516414,0,0,0,0,8,RTK Integer (6),RTK Integer (6),,340.000775969306,0,0,,0,0,0,0,0,0,0,0,0,0,0,0
1.640000000,1.310000000,1.320000000,1.26057444564E+18,171245.64,38.0163946419347,-122.013312633518,0.100000001490116,0.00284437414516414,0,0,0,0,8,RTK Integer (6),RTK Integer (6),,340.000775969306,0,0,,0,0,0,0,0,0,0,0,0,0,0,0
1.650000000,1.320000000,1.330000000,1.26057444565E+18,171245.65,38.0163946419347,-122.013312633518,0.100000001490116,0.00288739051684834,0.00860336925611373,4.51380433465465E-05,0,0.00860348766489497,8,RTK Integer (6),RTK Integer (6),,340.000775969306,0,0,,0,0,0,0,0,0,0,0,0,0,0,0
1.660000000,1.330000000,1.340000000,1.26057444566E+18,171245.66,38.0163946410896,-122.013312633127,0.100000001490116,0.00293040893976384,0,0,0,0,8,RTK Integer (6),RTK Integer (6),,340.000775969306,0,0,,0,0,0,0,0,0,0,0,0,0,0,0
1.670000000,1.340000000,1.350000000,1.26057444567E+18,171245.67,38.0163946419347,-122.013312633518,0.100000001490116,0.00293040893976384,0,0,0,0,8,RTK Integer (6),RTK Integer (6),,340.000775969306,0,0,,0,0,0,0,0,0,0,0,0,0,0,0
1.680000000,1.350000000,1.360000000,1.26057444568E+18,171245.68,38.0163946419347,-122.013312633518,0.100000001490116,0.00294749693095808,0.00341744010900859,-3.32129694447657E-05,0,0.00341760149812701,8,RTK Integer (6),RTK Integer (6),,340.000775969306,0,0,,0,0,0,0,0,0,0,0,0,0,0,0
1.690000000,1.360000000,1.370000000,1.26057444569E+18,171245.69,38.0163946419347,-122.013312633518,0.100000001490116,0.00296458451474248,0,0,0,0,8,RTK Integer (6),RTK Integer (6),,340.000775969306,0,0,,0,0,0,0,0,0,0,0,0,0,0,0
1.700000000,1.370000000,1.380000000,1.2605744457E+18,171245.7,38.0163946419347,-122.013312633518,0.100000001490116,0.00296458451474248,0,0,0,0,8,RTK Integer (6),RTK Integer (6),,340.000775969306,0,0,,0,0,0,0,0,0,0,0,0,0,0,0
1.710000000,1.380000000,1.390000000,1.26057444571E+18,171245.71,38.0163946419347,-122.013312633518,0.100000001490116,0.00296458451474248,0,0,0,0,8,RTK Integer (6),RTK Integer (6),,340.000775969306,0,0,,0,0,0,0,0,0,0,0,0,0,0,0
1.720000000,1.390000000,1.400000000,1.26057444572E+18,171245.72,38.0163946410896,-122.013312633127,0.100000001490116,0.00298167250593672,-0.00341744010900859,3.32129694447657E-05,0,0.00341760149812701,8,RTK Integer (6),RTK Integer (6),,340.000775969306,0,0,,0,0,0,0,0,0,0,0,0,0,0,0
1.730000000,1.400000000,1.410000000,1.26057444573E+18,171245.73,38.0163946410896,-122.013312633127,0.100000001490116,0.0030243914653977,-0.00512616016351289,4.98194541671483E-05,0,0.00512640224719052,8,RTK Integer (6),RTK Integer (6),,340.000775969306,0,0,,0,0,0,0,0,0,0,0,0,0,0,0
1.740000000,1.410000000,1.420000000,1.26057444574E+18,171245.74,38.0163946419347,-122.013312633518,0.100000001490116,0.00305856826260588,-0.0017087200545043,1.66064847223828E-05,0,0.00170880074906351,8,RTK Integer (6),RTK Integer (6),,340.000775969306,0,0,,0,0,0,0,0,0,0,0,0,0,0,0
1.750000000,1.420000000,1.430000000,1.26057444575E+18,171245.75,38.0163946419347,-122.013312633518,0.100000001490116,0.00306711246190792,0,0,0,0,8,RTK Integer (6),RTK Integer (6),,340.000775969306,0,0,,0,0,0,0,0,0,0,0,0,0,0,0
1.760000000,1.430000000,1.440000000,1.26057444576E+18,171245.76,38.0163946419347,-122.013312633518,0.100000001490116,0.00307565625380012,0.0017087200545043,-1.66064847223828E-05,0,0.00170880074906351,8,RTK Integer (6),RTK Integer (6),,340.000775969306,0,0,,0,0,0,0,0,0,0,0,0,0,0,0
1.770000000,1.440000000,1.450000000,1.26057444577E+18,171245.77,38.0163946419347,-122.013312633518,0.100000001490116,0.00308420024939724,0,0,0,0,8,RTK Integer (6),RTK Integer (6),,340.000775969306,0,0,,0,0,0,0,0,0,0,0,0,0,0,0
1.780000000,1.450000000,1.460000000,1.26057444578E+18,171245.78,38.0163946410896,-122.013312633127,0.100000001490116,0.00310128824059148,-0.00341744010900859,3.32129694447657E-05,0,0.00341760149812701,8,RTK Integer (6),RTK Integer (6),,340.000775969306,0,0,,0,0,0,0,0,0,0,0,0,0,0,0
1.790000000,1.460000000,1.470000000,1.26057444579E+18,171245.79,38.0163946419347,-122.013312633518,0.100000001490116,0.00311837663919557,0,0,0,0,8,RTK Integer (6),RTK Integer (6),,340.000775969306,0,0,,0,0,0,0,0,0,0,0,0,0,0,0
1.800000000,1.470000000,1.480000000,1.2605744458E+18,171245.8,38.0163946419347,-122.013312633518,0.100000001490116,0.00312692043108777,-0.0017087200545043,1.66064847223828E-05,0,0.00170880074906351,8,RTK Integer (6),RTK Integer (6),,340.000775969306,0,0,,0,0,0,0,0,0,0,0,0,0,0,0
1.810000000,1.480000000,1.490000000,1.26057444581E+18,171245.81,38.0163946419347,-122.013312633518,0.100000001490116,0.00314400842228201,-0.0017087200545043,1.66064847223828E-05,0,0.00170880074906351,8,RTK Integer (6),RTK Integer (6),,340.000775969306,0,0,,0,0,0,0,0,0,0,0,0,0,0,0
1.820000000,1.490000000,1.500000000,1.26057444582E+18,171245.82,38.0163946419347,-122.013312633518,0.100000001490116,0.00315255241787913,0,0,0,0,8,RTK Integer (6),RTK Integer (6),,340.000775969306,0,0,,0,0,0,0,0,0,0,0,0,0,0,0
1.830000000,1.500000000,1.510000000,1.26057444583E+18,171245.83,38.0163946419347,-122.013312633518,0.100000001490116,0.00315255241787913,0,0,0,0,8,RTK Integer (6),RTK Integer (6),,340.000775969306,0,0,,0,0,0,0,0,0,0,0,0,0,0,0
1.840000000,1.510000000,1.520000000,1.26057444584E+18,171245.84,38.0163946419347,-122.013312633518,0.100000001490116,0.00315255241787913,0,0,0,0,8,RTK Integer (6),RTK Integer (6),,340.000775969306,0,0,,0,0,0,0,0,0,0,0,0,0,0,0
1.850000000,1.520000000,1.530000000,1.26057444585E+18,171245.85,38.0163946419347,-122.013312633518,0.100000001490116,0.00315255241787913,0,0,0,0,8,RTK Integer (6),RTK Integer (6),,340.000775969306,0,0,,0,0,0,0,0,0,0,0,0,0,0,0
1.860000000,1.530000000,1.540000000,1.26057444586E+18,171245.86,38.0163946419347,-122.013312633518,0.100000001490116,0.00317818440467049,-0.00512616016351289,4.98194541671483E-05,0,0.00512640224719052,8,RTK Integer (6),RTK Integer (6),,340.000775969306,0,0,,0,0,0,0,0,0,0,0,0,0,0,0
1.870000000,1.540000000,1.550000000,1.26057444587E+18,171245.87,38.0163946410896,-122.013312633127,0.100000001490116,0.00323829241999012,-0.00689464920160943,-6.174452806893E-05,0,0.00689492567037528,8,RTK Integer (6),RTK Integer (6),,340.000775969306,0,0,,0,0,0,0,0,0,0,0,0,0,0,0
1.880000000,1.550000000,1.560000000,1.26057444588E+18,171245.88,38.0163946410896,-122.013312633127,0.100000001490116,0.00328985500665867,-0.00341744010900859,3.32129694447657E-05,0,0.00341760149812701,8,RTK Integer (6),RTK Integer (6),,340.000775969306,0,0,,0,0,0,0,0,0,0,0,0,0,0,0
1.890000000,1.560000000,1.570000000,1.26057444589E+18,171245.89,38.0163946410896,-122.013312633127,0.100000001490116,0.00332403017422746,-0.00341744010900859,3.32129694447657E-05,0,0.00341760149812701,8,RTK Integer (6),RTK Integer (6),,340.000775969306,0,0,,0,0,0,0,0,0,0,0,0,0,0,0
1.900000000,1.570000000,1.580000000,1.2605744459E+18,171245.9,38.0163946419347,-122.013312633518,0.100000001490116,0.00336675117073768,-0.00512616016351289,4.98194541671483E-05,0,0.00512640224719052,8,RTK Integer (6),RTK Integer (6),,340.000775969306,0,0,,0,0,0,0,0,0,0,0,0,0,0,0
1.910000000,1.580000000,1.590000000,1.26057444591E+18,171245.91,38.0163946419347,-122.013312633518,0.100000001490116,0.00340092715312616,0.0017087200545043,-1.66064847223828E-05,0,0.00170880074906351,8,RTK Integer (6),RTK Integer (6),,340.000775969306,0,0,,0,0,0,0,0,0,0,0,0,0,0,0
1.920000000,1.590000000,1.600000000,1.26057444592E+18,171245.92,38.0163946419347,-122.013312633518,0.100000001490116,0.00344394574419759,0.00689464920160943,6.174452806893E-05,0,0.00689492567037528,8,RTK Integer (6),RTK Integer (6),,340.000775969306,0,0,,0,0,0,0,0,0,0,0,0,0,0,0
1.930000000,1.600000000,1.610000000,1.26057444593E+18,171245.93,38.0163946419347,-122.013312633518,0.100000001490116,0.00347841951773271,0,0,0,0,8,RTK Integer (6),RTK Integer (6),,340.000775969306,0,0,,0,0,0,0,0,0,0,0,0,0,0,0
1.940000000,1.610000000,1.620000000,1.26057444594E+18,171245.94,38.0163946419347,-122.013312633518,0.100000001490116,0.00348696371703475,0.0017087200545043,-1.66064847223828E-05,0,0.00170880074906351,8,RTK Integer (6),RTK Integer (6),,340.000775969306,0,0,,0,0,0,0,0,0,0,0,0,0,0,0
1.950000000,1.620000000,1.630000000,1.26057444595E+18,171245.95,38.0163946419347,-122.013312633518,0.100000001490116,0.00350405170822899,-0.0017087200545043,1.66064847223828E-05,0,0.00170880074906351,8,RTK Integer (6),RTK Integer (6),,340.000775969306,0,0,,0,0,0,0,0,0,0,0,0,0,0,0
1.960000000,1.630000000,1.640000000,1.26057444596E+18,171245.96,38.0163946419347,-122.013312633518,0.100000001490116,0.00351259570382611,0,0,0,0,8,RTK Integer (6),RTK Integer (6),,340.000775969306,0,0,,0,0,0,0,0,0,0,0,0,0,0,0
1.970000000,1.640000000,1.650000000,1.26057444597E+18,171245.97,38.0163946419347,-122.013312633518,0.100000001490116,0.00354706947736123,0.00689464920160943,6.174452806893E-05,0,0.00689492567037528,8,RTK Integer (6),RTK Integer (6),,340.000775969306,0,0,,0,0,0,0,0,0,0,0,0,0,0,0
1.980000000,1.650000000,1.660000000,1.26057444598E+18,171245.98,38.0163946419347,-122.013312633518,0.100000001490116,0.00358154489477473,0,0,0,0,8,RTK Integer (6),RTK Integer (6),,340.000775969306,0,0,,0,0,0,0,0,0,0,0,0,0,0,0
1.990000000,1.660000000,1.670000000,1.26057444599E+18,171245.99,38.0163946419347,-122.013312633518,0.100000001490116,0.00359863288596897,-0.00341744010900859,3.32129694447657E-05,0,0.00341760149812701,8,RTK Integer (6),RTK Integer (6),,340.000775969306,0,0,,0,0,0,0,0,0,0,0,0,0,0,0
2.000000000,1.670000000,1.680000000,1.260574446E+18,171246,38.0163946419347,-122.013312633518,0.100000001490116,0.00361572087716321,0,0,0,0,8,RTK Integer (6),RTK Integer (6),,340.000775969306,0,0,,0,0,0,0,0,0,0,0,0,0,0,0
2.010000000,1.680000000,1.690000000,1.26057444601E+18,171246.01,38.0163946419347,-122.013312633518,0.100000001490116,0.00362426487276034,-0.0017087200545043,1.66064847223828E-05,0,0.00170880074906351,8,RTK Integer (6),RTK Integer (6),,340.000775969306,0,0,,0,0,0,0,0,0,0,0,0,0,0,0
2.020000000,1.690000000,1.700000000,1.26057444602E+18,171246.02,38.0163946410896,-122.013312633127,0.100000001490116,0.00366728346383176,-0.00689464920160943,-6.174452806893E-05,0,0.00689492567037528,8,RTK Integer (6),RTK Integer (6),,340.000775969306,0,0,,0,0,0,0,0,0,0,0,0,0,0,0
2.030000000,1.700000000,1.710000000,1.26057444603E+18,171246.03,38.0163946419347,-122.013312633518,0.100000001490116,0.00371884727984935,0.00341744010900859,-3.32129694447657E-05,0,0.00341760149812701,8,RTK Integer (6),RTK Integer (6),,340.000775969306,0,0,,0,0,0,0,0,0,0,0,0,0,0,0
2.040000000,1.710000000,1.720000000,1.26057444604E+18,171246.04,38.0163946419347,-122.013312633518,0.100000001490116,0.00373593486363375,0,0,0,0,8,RTK Integer (6),RTK Integer (6),,340.000775969306,0,0,,0,0,0,0,0,0,0,0,0,0,0,0
2.050000000,1.720000000,1.730000000,1.26057444605E+18,171246.05,38.0163946410896,-122.013312633127,0.100000001490116,0.00373593486363375,0,0,0,0,8,RTK Integer (6),RTK Integer (6),,340.000775969306,0,0,,0,0,0,0,0,0,0,0,0,0,0,0
2.060000000,1.730000000,1.740000000,1.26057444606E+18,171246.06,38.0163946419347,-122.013312633518,0.100000001490116,0.00373593486363375,0,0,0,0,8,RTK Integer (6),RTK Integer (6),,340.000775969306,0,0,,0,0,0,0,0,0,0,0,0,0,0,0
2.070000000,1.740000000,1.750000000,1.26057444607E+18,171246.07,38.0163946410896,-122.013312633127,0.100000001490116,0.00375302326223783,-0.00341744010900859,3.32129694447657E-05,0,0.00341760149812701,8,RTK Integer (6),RTK Integer (6),,340.000775969306,0,0,,0,0,0,0,0,0,0,0,0,0,0,0
2.080000000,1.750000000,1.760000000,1.26057444608E+18,171246.08,38.0163946419347,-122.013312633518,0.100000001490116,0.00378719842980662,0.00341744010900859,-3.32129694447657E-05,0,0.00341760149812701,8,RTK Integer (6),RTK Integer (6),,340.000775969306,0,0,,0,0,0,0,0,0,0,0,0,0,0,0
2.090000000,1.760000000,1.770000000,1.26057444609E+18,171246.09,38.0163946419347,-122.013312633518,0.100000001490116,0.00383876101647517,0.00689464920160943,6.174452806893E-05,0,0.00689492567037528,8,RTK Integer (6),RTK Integer (6),,340.000775969306,0,0,,0,0,0,0,0,0,0,0,0,0,0,0
2.100000000,1.770000000,1.780000000,1.2605744461E+18,171246.1,38.0163946419347,-122.013312633518,0.100000001490116,0.00390771020742379,0.00689464920160943,6.174452806893E-05,0,0.00689492567037528,8,RTK Integer (6),RTK Integer (6),,340.000775969306,0,0,,0,0,0,0,0,0,0,0,0,0,0,0
2.110000000,1.780000000,1.790000000,1.26057444611E+18,171246.11,38.0163946419347,-122.013312633518,0.100000001490116,0.00395927402344138,0.00341744010900859,-3.32129694447657E-05,0,0.00341760149812701,8,RTK Integer (6),RTK Integer (6),,340.000775969306,0,0,,0,0,0,0,0,0,0,0,0,0,0,0
2.120000000,1.790000000,1.800000000,1.26057444612E+18,171246.12,38.0163946419347,-122.013312633518,0.100000001490116,0.00397636160722577,0,0,0,0,8,RTK Integer (6),RTK Integer (6),,340.000775969306,0,0,,0,0,0,0,0,0,0,0,0,0,0,0
2.130000000,1.800000000,1.810000000,1.26057444613E+18,171246.13,38.0163946419347,-122.013312633518,0.100000001490116,0.00399344959842001,0.00341744010900859,-3.32129694447657E-05,0,0.00341760149812701,8,RTK Integer (6),RTK Integer (6),,340.000775969306,0,0,,0,0,0,0,0,0,0,0,0,0,0,0
2.140000000,1.810000000,1.820000000,1.26057444614E+18,171246.14,38.0163946419347,-122.013312633518,0.100000001490116,0.0040105379970241,0,0,0,0,8,RTK Integer (6),RTK Integer (6),,340.000775969306,0,0,,0,0,0,0,0,0,0,0,0,0,0,0
2.150000000,1.820000000,1.830000000,1.26057444615E+18,171246.15,38.0163946419347,-122.013312633518,0.100000001490116,0.00401908199262122,-0.0017087200545043,1.66064847223828E-05,0,0.00170880074906351,8,RTK Integer (6),RTK Integer (6),,340.000775969306,0,0,,0,0,0,0,0,0,0,0,0,0,0,0
2.160000000,1.830000000,1.840000000,1.26057444616E+18,171246.16,38.0163946419347,-122.013312633518,0.100000001490116,0.00403616998381546,-0.0017087200545043,1.66064847223828E-05,0,0.00170880074906351,8,RTK Integer (6),RTK Integer (6),,340.000775969306,0,0,,0,0,0,0,0,0,0,0,0,0,0,0
2.170000000,1.840000000,1.850000000,1.26057444617E+18,171246.17,38.0163946419347,-122.013312633518,0.100000001490116,0.00404471377570766,0,0,0,0,8,RTK Integer (6),RTK Integer (6),,340.000775969306,0,0,,0,0,0,0,0,0,0,0,0,0,0,0
2.180000000,1.850000000,1.860000000,1.26057444618E+18,171246.18,38.0163946419347,-122.013312633518,0.100000001490116,0.00406180217431175,0.00341744010900859,-3.32129694447657E-05,0,0.00341760149812701,8,RTK Integer (6),RTK Integer (6),,340.000775969306,0,0,,0,0,0,0,0,0,0,0,0,0,0,0
2.190000000,1.860000000,1.870000000,1.26057444619E+18,171246.19,38.0163946419347,-122.013312633518,0.100000001490116,0.00407889016550599,0,0,0,0,8,RTK Integer (6),RTK Integer (6),,340.000775969306,0,0,,0,0,0,0,0,0,0,0,0,0,0,0
2.200000000,1.870000000,1.880000000,1.2605744462E+18,171246.2,38.0163946419347,-122.013312633518,0.100000001490116,0.00408743416110311,0.0017087200545043,-1.66064847223828E-05,0,0.00170880074906351,8,RTK Integer (6),RTK Integer (6),,340.000775969306,0,0,,0,0,0,0,0,0,0,0,0,0,0,0
2.210000000,1.880000000,1.890000000,1.26057444621E+18,171246.21,38.0163946419347,-122.013312633518,0.100000001490116,0.0041130655367797,-0.00341744010900859,3.32129694447657E-05,0,0.00341760149812701,8,RTK Integer (6),RTK Integer (6),,340.000775969306,0,0,,0,0,0,0,0,0,0,0,0,0,0,0
2.220000000,1.890000000,1.900000000,1.26057444622E+18,171246.22,38.0163946419347,-122.013312633518,0.100000001490116,0.00413015393538379,0,0,0,0,8,RTK Integer (6),RTK Integer (6),,340.000775969306,0,0,,0,0,0,0,0,0,0,0,0,0,0,0
2.230000000,1.900000000,1.910000000,1.26057444623E+18,171246.23,38.0163946410896,-122.013312633127,0.100000001490116,0.00414724192657803,-0.00341744010900859,3.32129694447657E-05,0,0.00341760149812701,8,RTK Integer (6),RTK Integer (6),,340.000775969306,0,0,,0,0,0,0,0,0,0,0,0,0,0,0
2.240000000,1.910000000,1.920000000,1.26057444624E+18,171246.24,38.0163946419347,-122.013312633518,0.100000001490116,0.00416432991777227,0,0,0,0,8,RTK Integer (6),RTK Integer (6),,340.000775969306,0,0,,0,0,0,0,0,0,0,0,0,0,0,0
2.250000000,1.920000000,1.930000000,1.26057444625E+18,171246.25,38.0163946410896,-122.013312633127,0.100000001490116,0.00421588928320465,-0.010312089310618,-2.85315586241643E-05,0,0.0103121287811974,8,RTK Integer (6),RTK Integer (6),,340.000775969306,0,0,,0,0,0,0,0,0,0,0,0,0,0,0
2.260000000,1.930000000,1.940000000,1.26057444626E+18,171246.26,38.0163946419347,-122.013312633518,0.100000001490116,0.00426745110724012,0,0,0,0,8,RTK Integer (6),RTK Integer (6),,340.000775969306,0,0,,0,0,0,0,0,0,0,0,0,0,0,0
2.270000000,1.940000000,1.950000000,1.26057444627E+18,171246.27,38.0163946419347,-122.013312633518,0.100000001490116,0.00426745110724012,0,0,0,0,8,RTK Integer (6),RTK Integer (6),,340.000775969306,0,0,,0,0,0,0,0,0,0,0,0,0,0,0
2.280000000,1.950000000,1.960000000,1.26057444628E+18,171246.28,38.0163946419347,-122.013312633518,0.100000001490116,0.00426745110724012,0,0,0,0,8,RTK Integer (6),RTK Integer (6),,340.000775969306,0,0,,0,0,0,0,0,0,0,0,0,0,0,0
2.290000000,1.960000000,1.970000000,1.26057444629E+18,171246.29,38.0163946419347,-122.013312633518,0.100000001490116,0.00429308309403148,0.00512616016351289,-4.98194541671483E-05,0,0.00512640224719052,8,RTK Integer (6),RTK Integer (6),,340.000775969306,0,0,,0,0,0,0,0,0,0,0,0,0,0,0
2.300000000,1.970000000,1.980000000,1.2605744463E+18,171246.3,38.0163946419347,-122.013312633518,0.100000001490116,0.00431871508082285,0,0,0,0,8,RTK Integer (6),RTK Integer (6),,340.000775969306,0,0,,0,0,0,0,0,0,0,0,0,0,0,0
2.310000000,1.980000000,1.990000000,1.26057444631E+18,171246.31,38.0163946419347,-122.013312633518,0.100000001490116,0.00435319049823635,0.00689464920160943,6.174452806893E-05,0,0.00689492567037528,8,RTK Integer (6),RTK Integer (6),,340.000775969306,0,0,,0,0,0,0,0,0,0,0,0,0,0,0
2.320000000,1.990000000,2.000000000,1.26057444632E+18,171246.32,38.0163946410896,-122.013312633127,0.100000001490116,0.00442213804530658,-0.00689464920160943,-6.174452806893E-05,0,0.00689492567037528,8,RTK Integer (6),RTK Integer (6),,340.000775969306,0,0,,0,0,0,0,0,0,0,0,0,0,0,0
2.330000000,2.000000000,2.010000000,1.26057444633E+18,171246.33,38.0163946419347,-122.013312633518,0.100000001490116,0.00446515663637801,-0.0017087200545043,1.66064847223828E-05,0,0.00170880074906351,8,RTK Integer (6),RTK Integer (6),,340.000775969306,0,0,,0,0,0,0,0,0,0,0,0,0,0,0
2.340000000,2.010000000,2.020000000,1.26057444634E+18,171246.34,38.0163946419347,-122.013312633518,0.100000001490116,0.00447370063197513,0,0,0,0,8,RTK Integer (6),RTK Integer (6),,340.000775969306,0,0,,0,0,0,0,0,0,0,0,0,0,0,0
2.350000000,2.020000000,2.030000000,1.26057444635E+18,171246.35,38.0163946419347,-122.013312633518,0.100000001490116,0.00447370063197513,0,0,0,0,8,RTK Integer (6),RTK Integer (6),,340.000775969306,0,0,,0,0,0,0,0,0,0,0,0,0,0,0
2.360000000,2.030000000,2.040000000,1.26057444636E+18,171246.36,38.0163946419347,-122.013312633518,0.100000001490116,0.00448224442386733,0.0017087200545043,-1.66064847223828E-05,0,0.00170880074906351,8,RTK Integer (6),RTK Integer (6),,340.000775969306,0,0,,0,0,0,0,0,0,0,0,0,0,0,0
2.370000000,2.040000000,2.050000000,1.26057444637E+18,171246.37,38.0163946419347,-122.013312633518,0.100000001490116,0.00449078841946445,0,0,0,0,8,RTK Integer (6),RTK Integer (6),,340.000775969306,0,0,,0,0,0,0,0,0,0,0,0,0,0,0
2.380000000,2.050000000,2.060000000,1.26057444638E+18,171246.38,38.0163946419347,-122.013312633518,0.100000001490116,0.00449933261876649,0.0017087200545043,-1.66064847223828E-05,0,0.00170880074906351,8,RTK Integer (6),RTK Integer (6),,340.000775969306,0,0,,0,0,0,0,0,0,0,0,0,0,0,0
2.390000000,2.060000000,2.070000000,1.26057444639E+18,171246.39,38.0163946419347,-122.013312633518,0.100000001490116,0.00453350860115498,0.00512616016351289,-4.98194541671483E-05,0,0.00512640224719052,8,RTK Integer (6),RTK Integer (6),,340.000775969306,0,0,,0,0,0,0,0,0,0,0,0,0,0,0
2.400000000,2.070000000,2.080000000,1.2605744464E+18,171246.4,38.0163946419347,-122.013312633518,0.100000001490116,0.00459361518342065,0.00689464920160943,6.174452806893E-05,0,0.00689492567037528,8,RTK Integer (6),RTK Integer (6),,340.000775969306,0,0,,0,0,0,0,0,0,0,0,0,0,0,0
2.410000000,2.080000000,2.090000000,1.26057444641E+18,171246.41,38.0163946410896,-122.013312633127,0.100000001490116,0.00464517654074016,-0.00341744010900859,3.32129694447657E-05,0,0.00341760149812701,8,RTK Integer (6),RTK Integer (6),,340.000775969306,0,0,,0,0,0,0,0,0,0,0,0,0,0,0
2.420000000,2.090000000,2.100000000,1.26057444642E+18,171246.42,38.0163946419347,-122.013312633518,0.100000001490116,0.00466226493934425,0,0,0,0,8,RTK Integer (6),RTK Integer (6),,340.000775969306,0,0,,0,0,0,0,0,0,0,0,0,0,0,0
2.430000000,2.100000000,2.110000000,1.26057444643E+18,171246.43,38.0163946410896,-122.013312633127,0.100000001490116,0.00466226493934425,0,0,0,0,8,RTK Integer (6),RTK Integer (6),,340.000775969306,0,0,,0,0,0,0,0,0,0,0,0,0,0,0
2.440000000,2.110000000,2.120000000,1.26057444644E+18,171246.44,38.0163946419347,-122.013312633518,0.100000001490116,0.00467080893494137,-0.0017087200545043,1.66064847223828E-05,0,0.00170880074906351,8,RTK Integer (6),RTK Integer (6),,340.000775969306,0,0,,0,0,0,0,0,0,0,0,0,0,0,0
2.450000000,2.120000000,2.130000000,1.26057444645E+18,171246.45,38.0163946419347,-122.013312633518,0.100000001490116,0.00467935272683357,0,0,0,0,8,RTK Integer (6),RTK Integer (6),,340.000775969306,0,0,,0,0,0,0,0,0,0,0,0,0,0,0
2.460000000,2.130000000,2.140000000,1.26057444646E+18,171246.46,38.0163946419347,-122.013312633518,0.100000001490116,0.00467935272683357,0,0,0,0,8,RTK Integer (6),RTK Integer (6),,340.000775969306,0,0,,0,0,0,0,0,0,0,0,0,0,0,0
2.470000000,2.140000000,2.150000000,1.26057444647E+18,171246.47,38.0163946419347,-122.013312633518,0.100000001490116,0.00468789672243069,-0.0017087200545043,1.66064847223828E-05,0,0.00170880074906351,8,RTK Integer (6),RTK Integer (6),,340.000775969306,0,0,,0,0,0,0,0,0,0,0,0,0,0,0
2.480000000,2.150000000,2.160000000,1.26057444648E+18,171246.48,38.0163946410896,-122.013312633127,0.100000001490116,0.00472207270481917,-0.00512616016351289,4.98194541671483E-05,0,0.00512640224719052,8,RTK Integer (6),RTK Integer (6),,340.000775969306,0,0,,0,0,0,0,0,0,0,0,0,0,0,0
2.490000000,2.160000000,2.170000000,1.26057444649E+18,171246.49,38.0163946419347,-122.013312633518,0.100000001490116,0.00476479166428016,0.00341744010900859,-3.32129694447657E-05,0,0.00341760149812701,8,RTK Integer (6),RTK Integer (6),,340.000775969306,0,0,,0,0,0,0,0,0,0,0,0,0,0,0
2.500000000,2.170000000,2.180000000,1.2605744465E+18,171246.5,38.0163946419347,-122.013312633518,0.100000001490116,0.00479042426218629,-0.0017087200545043,1.66064847223828E-05,0,0.00170880074906351,8,RTK Integer (6),RTK Integer (6),,340.000775969306,0,0,,0,0,0,0,0,0,0,0,0,0,0,0
2.510000000,2.180000000,2.190000000,1.26057444651E+18,171246.51,38.0163946419347,-122.013312633518,0.100000001490116,0.00479896846148833,0,0,0,0,8,RTK Integer (6),RTK Integer (6),,340.000775969306,0,0,,0,0,0,0,0,0,0,0,0,0,0,0
2.520000000,2.190000000,2.200000000,1.26057444652E+18,171246.52,38.0163946419347,-122.013312633518,0.100000001490116,0.00480751225338053,0.0017087200545043,-1.66064847223828E-05,0,0.00170880074906351,8,RTK Integer (6),RTK Integer (6),,340.000775969306,0,0,,0,0,0,0,0,0,0,0,0,0,0,0
2.530000000,2.200000000,2.210000000,1.26057444653E+18,171246.53,38.0163946419347,-122.013312633518,0.100000001490116,0.00481605624897765,0,0,0,0,8,RTK Integer (6),RTK Integer (6),,340.000775969306,0,0,,0,0,0,0,0,0,0,0,0,0,0,0
2.540000000,2.210000000,2.220000000,1.26057444654E+18,171246.54,38.0163946419347,-122.013312633518,0.100000001490116,0.00482460024457477,0.0017087200545043,-1.66064847223828E-05,0,0.00170880074906351,8,RTK Integer (6),RTK Integer (6),,340.000775969306,0,0,,0,0,0,0,0,0,0,0,0,0,0,0
2.550000000,2.220000000,2.230000000,1.26057444655E+18,171246.55,38.0163946410896,-122.013312633127,0.100000001490116,0.00486761986129031,-0.00689464920160943,-6.174452806893E-05,0,0.00689492567037528,8,RTK Integer (6),RTK Integer (6),,340.000775969306,0,0,,0,0,0,0,0,0,0,0,0,0,0,0
2.560000000,2.230000000,2.240000000,1.26057444656E+18,171246.56,38.0163946419347,-122.013312633518,0.100000001490116,0.00490209363482543,0,0,0,0,8,RTK Integer (6),RTK Integer (6),,340.000775969306,0,0,,0,0,0,0,0,0,0,0,0,0,0,0
2.570000000,2.240000000,2.250000000,1.26057444657E+18,171246.57,38.0163946419347,-122.013312633518,0.100000001490116,0.00491918162601967,0.00341744010900859,-3.32129694447657E-05,0,0.00341760149812701,8,RTK Integer (6),RTK Integer (6),,340.000775969306,0,0,,0,0,0,0,0,0,0,0,0,0,0,0
2.580000000,2.250000000,2.260000000,1.26057444658E+18,171246.58,38.0163946419347,-122.013312633518,0.100000001490116,0.00493626961721391,0,0,0,0,8,RTK Integer (6),RTK Integer (6),,340.000775969306,0,0,,0,0,0,0,0,0,0,0,0,0,0,0
