[Tag 0 SN Range]Time from start of file (s),[Tag 0 SN Range]Time from start of region (s),[Tag 0 SN Range]Time (GPS s),[Tag 0 SN Range]Seconds from midnight Sunday (),[Tag 0 SN Range]Hunter heading (deg),[Tag 0 SN Range]Number of targets (),[Tag 0 SN Range]Target 1 range forward (m),[Tag 0 SN Range]Target 1 range lateral (m),[Tag 0 SN Range]Target 1 range horizontal (m),[Tag 0 SN Range]Target 1 angle to target (deg),[Tag 0 SN Range]Target 1 range velocity forward (m/s),[Tag 0 SN Range]Target 1 range velocity lateral (m/s),[Tag 0 SN Range]Target 1 time to collision forward (),[Tag 0 SN Range]Target 1 time to collision lateral (),[Tag 0 SN Range]Target 1 time gap forward (),[Tag 1 SN Target1 ]Time from start of file (s),[Tag 1 SN Target1 ]Time from start of region (s),[Tag 1 SN Target1 ]Time (),[Tag 1 SN Target1 ]Seconds from midnight Sunday (),[Tag 1 SN Target1 ]Time from initialisation (s),[Tag 1 SN Target1 ]Latitude (deg),[Tag 1 SN Target1 ]Longitude (deg),[Tag 1 SN Target1 ]Altitude (m),[Tag 1 SN Target1 ]Distance horizontal (m),[Tag 1 SN Target1 ]Velocity forward (m/s),[Tag 1 SN Target1 ]Velocity lateral (m/s),[Tag 1 SN Target1 ]Velocity down (m/s),[Tag 1 SN Target1 ]Speed horizontal (m/s),[Tag 1 SN Target1 ]Number of GPS satellites used (),[Tag 1 SN Target1 ]GPS position mode (),[Tag 1 SN Target1 ]GPS velocity mode (),[Tag 1 SN Target1 ]GPS dual antenna attitude mode (),[Tag 1 SN Target1 ]Heading (deg),[Tag 1 SN Target1 ]Pitch (deg),[Tag 1 SN Target1 ]Roll (deg),[Tag 1 SN Target1 ]Slip angle (deg),[Tag 1 SN Target1 ]Angular rate forward (deg/s),[Tag 1 SN Target1 ]Angular rate lateral (deg/s),[Tag 1 SN Target1 ]Angular rate down (deg/s),[Tag 1 SN Target1 ]Angular rate Xv (deg/s),[Tag 1 SN Target1 ]Angular rate Yv (deg/s),[Tag 1 SN Target1 ]Angular rate Zv (deg/s),[Tag 1 SN Target1 ]Acceleration forward (m/s²),[Tag 1 SN Target1 ]Acceleration lateral (m/s²),[Tag 1 SN Target1 ]Acceleration down (m/s²),[Tag 1 SN Target1 ]Acceleration Xv (m/s²),[Tag 1 SN Target1 ]Acceleration Yv (m/s²),[Tag 1 SN Target1 ]Acceleration Zv (m/s²),[Tag 2 SN40075 Hunter Real-Time]Time from start of file (s),[Tag 2 SN40075 Hunter Real-Time]Time from start of region (s),[Tag 2 SN40075 Hunter Real-Time]Time (),[Tag 2 SN40075 Hunter Real-Time]Seconds from midnight Sunday (),[Tag 2 SN40075 Hunter Real-Time]Time from initialisation (s),[Tag 2 SN40075 Hunter Real-Time]Latitude (deg),[Tag 2 SN40075 Hunter Real-Time]Longitude (deg),[Tag 2 SN40075 Hunter Real-Time]Altitude (m),[Tag 2 SN40075 Hunter Real-Time]Distance horizontal (m),[Tag 2 SN40075 Hunter Real-Time]Velocity forward (m/s),[Tag 2 SN40075 Hunter Real-Time]Velocity lateral (m/s),[Tag 2 SN40075 Hunter Real-Time]Velocity down (m/s),[Tag 2 SN40075 Hunter Real-Time]Speed horizontal (m/s),[Tag 2 SN40075 Hunter Real-Time]Number of GPS satellites used (),[Tag 2 SN40075 Hunter Real-Time]GPS position mode (),[Tag 2 SN40075 Hunter Real-Time]GPS velocity mode (),[Tag 2 SN40075 Hunter Real-Time]GPS dual antenna attitude mode (),[Tag 2 SN40075 Hunter Real-Time]Heading (deg),[Tag 2 SN40075 Hunter Real-Time]Pitch (deg),[Tag 2 SN40075 Hunter Real-Time]Roll (deg),[Tag 2 SN40075 Hunter Real-Time]Slip angle (deg),[Tag 2 SN40075 Hunter Real-Time]Angular rate forward (deg/s),[Tag 2 SN40075 Hunter Real-Time]Angular rate lateral (deg/s),[Tag 2 SN40075 Hunter Real-Time]Angular rate down (deg/s),[Tag 2 SN40075 Hunter Real-Time]Angular rate Xv (deg/s),[Tag 2 SN40075 Hunter Real-Time]Angular rate Yv (deg/s),[Tag 2 SN40075 Hunter Real-Time]Angular rate Zv (deg/s),[Tag 2 SN40075 Hunter Real-Time]Acceleration forward (m/s²),[Tag 2 SN40075 Hunter Real-Time]Acceleration lateral (m/s²),[Tag 2 SN40075 Hunter Real-Time]Acceleration down (m/s²),[Tag 2 SN40075 Hunter Real-Time]Acceleration Xv (m/s²),[Tag 2 SN40075 Hunter Real-Time]Acceleration Yv (m/s²),[Tag 2 SN40075 Hunter Real-Time]Acceleration Zv (m/s²)
1,0.01,1260315491,517091,70.03,1,45.553,5.648,45.90180512,7.067886559,-1.88,0.5,24.23031915,-11.296,25.30722222,10,9.93,1.26E+18,517091,9.92,38.01653699,-122.0125098,0.100000001,0,0,0,0,0,8,RTK Integer (6),RTK Integer (6),,342.0007997,0,0,,0,0,0,0,0,0,0,0,0,0,0,0,1,0.01,1.26E+18,517091,-0.01,38.01644364,-122.013019,24.26496124,0.018422122,1.845243605,0.118200663,-0.0045,1.849025516,12,RTK Integer (6),gxInteger (24),RTK Integer (6),70.00123321,2.125845307,0.927790558,3.665184811,-0.21494121,-0.322345005,-0.894085888,-0.181627621,-0.336899184,-0.896105992,1.419184684,-0.762863604,-8.941815127,1.7499,-0.9066,-8.8695
1.01,0.02,1260315491,517091.01,70.02,1,45.534,5.654,45.88368852,7.07824126,-1.9,0.56,23.96526316,-10.09642857,25.01868132,10.01,9.94,1.26E+18,517091.01,9.93,38.01653699,-122.0125098,0.100000001,0,0,0,0,0,8,RTK Integer (6),RTK Integer (6),,342.0007997,0,0,,0,0,0,0,0,0,0,0,0,0,0,0,1.01,0.02,1.26E+18,517091.01,0,38.01644369,-122.0130188,24.26505089,0.036981772,1.858877527,0.122479012,-0.0099,1.862908149,12,RTK Integer (6),gxInteger (24),RTK Integer (6),69.99298262,2.123839955,0.92395174,3.769695207,-0.381664768,-0.207264981,-0.814351227,-0.351223128,-0.220588751,-0.824486267,1.365242003,0.398257205,-10.34001307,1.7475,0.2324,-10.2874
1.02,0.03,1260315491,517091.02,70,1,45.496,5.666,45.84745982,7.09897521,-1.93,0.59,23.57305699,-9.603389831,24.59243243,10.02,9.95,1.26E+18,517091.02,9.94,38.01653699,-122.0125098,0.100000001,0,0,0,0,0,8,RTK Integer (6),RTK Integer (6),,342.0007997,0,0,,0,0,0,0,0,0,0,0,0,0,0,0,1.02,0.03,1.26E+18,517091.02,0.01,38.01644375,-122.0130186,24.26516724,0.055678029,1.872785826,0.1155428,-0.006,1.876346687,12,RTK Integer (6),gxInteger (24),RTK Integer (6),69.98266938,2.121032462,0.921144247,3.530427414,-0.24302502,-0.283913369,-0.973256485,-0.206837764,-0.299656927,-0.976893041,1.398311391,-0.683142488,-9.403985358,1.7454,-0.8333,-9.3336
1.03,0.04,1260315491,517091.03,69.99,1,45.477,5.671,45.82922397,7.108113887,-1.94,0.52,23.44175258,-10.90576923,24.45,10.03,9.96,1.26E+18,517091.03,9.95,38.01653699,-122.0125098,0.100000001,0,0,0,0,0,8,RTK Integer (6),RTK Integer (6),,342.0007997,0,0,,0,0,0,0,0,0,0,0,0,0,0,0,1.03,0.04,1.26E+18,517091.03,0.02,38.0164438,-122.0130184,24.26530075,0.074514994,1.887134775,0.120220089,-0.012,1.890960214,12,RTK Integer (6),gxInteger (24),RTK Integer (6),69.97373124,2.119256293,0.919998332,3.645107029,-0.112710258,-0.183311999,-0.892169276,-0.079641134,-0.197670439,-0.892668245,1.436510437,0.44079879,-10.40769647,1.8204,0.2746,-10.3532
1.04,0.05,1260315491,517091.04,69.98,1,45.457,5.68,45.81049278,7.122379107,-1.97,0.66,23.07461929,-8.606060606,24.30855615,10.04,9.97,1.26E+18,517091.04,9.96,38.01653699,-122.0125098,0.100000001,0,0,0,0,0,8,RTK Integer (6),RTK Integer (6),,342.0007997,0,0,,0,0,0,0,0,0,0,0,0,0,0,0,1.04,0.05,1.26E+18,517091.04,0.03,38.01644384,-122.0130182,24.26540565,0.093495064,1.901366471,0.119974971,-0.0108,1.905147881,12,RTK Integer (6),gxInteger (24),RTK Integer (6),69.96444932,2.117308236,0.917649205,3.610539182,-0.235873432,-0.198857271,-0.921118116,-0.201681144,-0.213713258,-0.925899797,1.425233485,-0.060012523,-9.674755593,1.7817,-0.214,-9.6133
1.05,0.06,1260315491,517091.05,69.97,1,45.437,5.686,45.79139182,7.132931374,-1.97,0.59,23.06446701,-9.637288136,24.04074074,10.05,9.98,1.26E+18,517091.05,9.97,38.01653699,-122.0125098,0.100000001,0,0,0,0,0,8,RTK Integer (6),RTK Integer (6),,342.0007997,0,0,,0,0,0,0,0,0,0,0,0,0,0,0,1.05,0.06,1.26E+18,517091.05,0.04,38.01644391,-122.013018,24.26557541,0.112613712,1.914550378,0.12436499,-0.0086,1.918585364,12,RTK Integer (6),gxInteger (24),RTK Integer (6),69.95488093,2.114901813,0.915529261,3.716586536,-0.167565963,-0.243987218,-0.826881213,-0.136936913,-0.25725805,-0.828496972,1.320083739,0.458839042,-9.579425484,1.6727,0.3066,-9.5303
1.06,0.07,1260315491,517091.06,69.96,1,45.418,5.692,45.77328465,7.143336789,-1.99,0.61,22.82311558,-9.331147541,23.90421053,10.06,9.99,1.26E+18,517091.06,9.98,38.01653699,-122.0125098,0.100000001,0,0,0,0,0,8,RTK Integer (6),RTK Integer (6),,342.0007997,0,0,,0,0,0,0,0,0,0,0,0,0,0,0,1.06,0.07,1.26E+18,517091.06,0.05,38.01644396,-122.0130178,24.2657299,0.131864487,1.927863979,0.119650191,-0.0148,1.931573372,12,RTK Integer (6),gxInteger (24),RTK Integer (6),69.94536983,2.113698602,0.914841711,3.551427482,-0.066692815,-0.128017167,-0.952609824,-0.031512679,-0.143239449,-0.952255856,1.329776353,-0.503172938,-10.41488615,1.713,-0.6685,-10.3494
1.07,0.08,1260315491,517091.07,69.95,1,45.398,5.7,45.75443589,7.156391378,-2,0.53,22.699,-10.75471698,23.76858639,10.07,10,1.26E+18,517091.07,9.99,38.01653699,-122.0125098,0.100000001,0,0,0,0,0,8,RTK Integer (6),RTK Integer (6),,342.0007997,0,0,,0,0,0,0,0,0,0,0,0,0,0,0,1.07,0.08,1.26E+18,517091.07,0.06,38.016444,-122.0130176,24.26590157,0.151247492,1.940988694,0.12389362,-0.0171,1.94493875,12,RTK Integer (6),gxInteger (24),RTK Integer (6),69.93660357,2.112724574,0.913065542,3.65224408,-0.176645662,-0.098898172,-0.871820375,-0.144385364,-0.112872686,-0.876052469,1.322765759,0.390625857,-10.031926,1.6917,0.2316,-9.9813
1.08,0.09,1260315491,517091.08,69.95,1,45.377,5.706,45.73434776,7.167127081,-2.02,0.64,22.46386139,-8.915625,23.51139896,10.08,10.01,1.26E+18,517091.08,10,38.01653699,-122.0125098,0.100000001,0,0,0,0,0,8,RTK Integer (6),RTK Integer (6),,342.0007997,0,0,,0,0,0,0,0,0,0,0,0,0,0,0,1.08,0.09,1.26E+18,517091.08,0.07,38.01644407,-122.0130174,24.26606941,0.170763143,1.954467882,0.122264422,-0.0087,1.958288357,12,RTK Integer (6),gxInteger (24),RTK Integer (6),69.92606115,2.110146264,0.910716415,3.579551728,-0.198914456,-0.261268505,-0.932646743,-0.164438887,-0.276165657,-0.935067122,1.345316814,-0.155241123,-8.956801056,1.6742,-0.2967,-8.8976
1.09,0.1,1260315491,517091.09,69.94,1,45.357,5.712,45.7152534,7.177715617,-2.03,0.57,22.34334975,-10.02105263,23.37989691,10.09,10.02,1.26E+18,517091.09,10.01,38.01653699,-122.0125098,0.100000001,0,0,0,0,0,8,RTK Integer (6),RTK Integer (6),,342.0007997,0,0,,0,0,0,0,0,0,0,0,0,0,0,0,1.09,0.1,1.26E+18,517091.09,0.08,38.01644412,-122.0130171,24.26628304,0.190412025,1.967725556,0.121802443,-0.0209,1.971491745,12,RTK Integer (6),gxInteger (24),RTK Integer (6),69.91649275,2.110031672,0.909856979,3.542096091,-0.085056071,-0.014596076,-0.954707656,-0.049847328,-0.029793805,-0.956839518,1.328269453,-0.072518719,-11.01971075,1.7331,-0.2466,-10.9608
1.1,0.11,1260315491,517091.1,69.93,1,45.337,5.72,45.6964109,7.190800962,-2.05,0.62,22.11560976,-9.225806452,23.24974359,10.1,10.03,1.26E+18,517091.1,10.02,38.01653699,-122.0125098,0.100000001,0,0,0,0,0,8,RTK Integer (6),RTK Integer (6),,342.0007997,0,0,,0,0,0,0,0,0,0,0,0,0,0,0,1.1,0.11,1.26E+18,517091.1,0.09,38.01644417,-122.0130169,24.26644707,0.21019385,1.980829532,0.126692765,-0.0149,1.984876996,11,RTK Integer (6),gxInteger (24),RTK Integer (6),69.9076692,2.108656573,0.909054838,3.659621647,-0.079016011,-0.142935459,-0.884717918,-0.046409581,-0.156990436,-0.884646836,1.314103257,0.453841648,-9.19933202,1.6517,0.3087,-9.1508
1.11,0.12,1260315491,517091.11,69.92,1,45.316,5.727,45.67645329,7.202809922,-2.06,0.63,21.99805825,-9.09047619,23.00304569,10.11,10.04,1.26E+18,517091.11,10.03,38.01653699,-122.0125098,0.100000001,0,0,0,0,0,8,RTK Integer (6),RTK Integer (6),,342.0007997,0,0,,0,0,0,0,0,0,0,0,0,0,0,0,1.11,0.12,1.26E+18,517091.11,0.1,38.01644423,-122.0130167,24.26670265,0.230099246,1.992190456,0.125047657,-0.0178,1.996111152,11,RTK Integer (6),gxInteger (24),RTK Integer (6),69.89712678,2.107682545,0.908195401,3.591682539,-0.042680448,-0.102529649,-0.941607571,-0.008021409,-0.117456348,-0.9407967,1.140087935,-0.158778295,-10.09533839,1.5106,-0.318,-10.0428
1.12,0.13,1260315491,517091.12,69.91,1,45.296,5.732,45.65723864,7.212181825,-2.07,0.57,21.8821256,-10.05614035,22.87676768,10.12,10.05,1.26E+18,517091.12,10.04,38.01653699,-122.0125098,0.100000001,0,0,0,0,0,8,RTK Integer (6),RTK Integer (6),,342.0007997,0,0,,0,0,0,0,0,0,0,0,0,0,0,0,1.12,0.13,1.26E+18,517091.12,0.11,38.01644428,-122.0130165,24.26684952,0.250121464,2.004620469,0.123673059,-0.0145,2.008431789,11,RTK Integer (6),gxInteger (24),RTK Integer (6),69.88710002,2.106020968,0.907335964,3.530331462,-0.08564138,-0.172019804,-1.003629946,-0.048701413,-0.187930157,-1.003249099,1.246396952,-0.171758745,-9.465497247,1.5934,-0.3208,-9.4094
1.13,0.14,1260315491,517091.13,69.9,1,45.275,5.741,45.63753615,7.226701415,-2.08,0.62,21.76682692,-9.259677419,22.75125628,10.13,10.06,1.26E+18,517091.13,10.05,38.01653699,-122.0125098,0.100000001,0,0,0,0,0,8,RTK Integer (6),RTK Integer (6),,342.0007997,0,0,,0,0,0,0,0,0,0,0,0,0,0,0,1.13,0.14,1.26E+18,517091.13,0.12,38.01644433,-122.0130163,24.26697159,0.270274188,2.017817037,0.131797434,-0.0136,2.022116752,11,RTK Integer (6),gxInteger (24),RTK Integer (6),69.87850565,2.104072911,0.906591119,3.737070851,-0.075080805,-0.193831786,-0.857568011,-0.043544792,-0.207410722,-0.856571904,1.316474595,0.781326833,-9.707624966,1.672,0.6285,-9.6639
1.14,0.15,1260315491,517091.14,69.89,1,45.254,5.748,45.61758455,7.238741576,-2.1,0.67,21.54952381,-8.579104478,22.627,10.14,10.07,1.26E+18,517091.14,10.06,38.01653699,-122.0125098,0.100000001,0,0,0,0,0,8,RTK Integer (6),RTK Integer (6),,342.0007997,0,0,,0,0,0,0,0,0,0,0,0,0,0,0,1.14,0.15,1.26E+18,517091.14,0.13,38.0164444,-122.0130161,24.26720428,0.290560376,2.03039412,0.137254101,-0.0159,2.035028002,11,RTK Integer (6),gxInteger (24),RTK Integer (6),69.86979669,2.102755108,0.904643063,3.867295739,-0.156916902,-0.142057091,-0.760272433,-0.128915504,-0.154125647,-0.763179783,1.266632108,0.562630868,-10.03279162,1.6339,0.405,-9.9872
1.15,0.16,1260315491,517091.15,69.88,1,45.233,5.753,45.59738258,7.248299254,-2.1,0.55,21.53952381,-10.46,22.39257426,10.15,10.08,1.26E+18,517091.15,10.07,38.01653699,-122.0125098,0.100000001,0,0,0,0,0,8,RTK Integer (6),RTK Integer (6),,342.0007997,0,0,,0,0,0,0,0,0,0,0,0,0,0,0,1.15,0.16,1.26E+18,517091.15,0.14,38.01644445,-122.0130158,24.26741028,0.310965038,2.041816443,0.129330668,-0.0198,2.045908309,11,RTK Integer (6),gxInteger (24),RTK Integer (6),69.860171,2.102067559,0.902809598,3.624329342,-0.182014646,-0.070730316,-0.960065109,-0.146677196,-0.085943669,-0.964860927,1.14018607,-0.831692762,-10.18493825,1.513,-0.9913,-10.1219
1.16,0.17,1260315491,517091.16,69.87,1,45.212,5.76,45.57743459,7.260359476,-2.11,0.46,21.42748815,-12.52173913,22.27192118,10.16,10.09,1.26E+18,517091.16,10.08,38.01653699,-122.0125098,0.100000001,0,0,0,0,0,8,RTK Integer (6),RTK Integer (6),,342.0007997,0,0,,0,0,0,0,0,0,0,0,0,0,0,0,1.16,0.17,1.26E+18,517091.16,0.15,38.0164445,-122.0130156,24.26755524,0.331489174,2.054414406,0.136179467,-0.0151,2.058922874,11,RTK Integer (6),gxInteger (24),RTK Integer (6),69.85169123,2.10029139,0.901892865,3.792375577,-0.090815127,-0.177387771,-0.850410245,-0.059587611,-0.190794946,-0.850269368,1.261127439,0.652849337,-9.332361786,1.6023,0.5067,-9.289
1.17,0.18,1260315491,517091.17,69.86,1,45.19,5.766,45.55637009,7.271341895,-2.14,0.63,21.11682243,-9.152380952,22.15196078,10.17,10.1,1.26E+18,517091.17,10.09,38.01653699,-122.0125098,0.100000001,0,0,0,0,0,8,RTK Integer (6),RTK Integer (6),,342.0007997,0,0,,0,0,0,0,0,0,0,0,0,0,0,0,1.17,0.18,1.26E+18,517091.17,0.16,38.01644456,-122.0130154,24.26784325,0.352141037,2.066760532,0.140814035,-0.0194,2.071552,11,RTK Integer (6),gxInteger (24),RTK Integer (6),69.84309686,2.099088178,0.899371851,3.897694133,-0.229585468,-0.107172405,-0.757628441,-0.201681144,-0.119175221,-0.763752741,1.224485014,0.472706388,-10.22274315,1.5981,0.313,-10.1772
1.18,0.19,1260315491,517091.18,69.85,1,45.169,5.772,45.5362992,7.28217498,-2.14,0.54,21.10700935,-10.68888889,22.03365854,10.18,10.11,1.26E+18,517091.18,10.1,38.01653699,-122.0125098,0.100000001,0,0,0,0,0,8,RTK Integer (6),RTK Integer (6),,342.0007997,0,0,,0,0,0,0,0,0,0,0,0,0,0,0,1.18,0.19,1.26E+18,517091.18,0.17,38.01644462,-122.0130152,24.26791763,0.372911415,2.078070188,0.134657733,-0.0074,2.082428489,11,RTK Integer (6),gxInteger (24),RTK Integer (6),69.83381494,2.095478544,0.897710273,3.70754953,-0.161522571,-0.365416732,-0.920145234,-0.127769588,-0.379871018,-0.919597261,1.13893587,-0.651954157,-8.601861613,1.4527,-0.7859,-8.5432
1.19,0.2,1260315491,517091.19,69.84,1,45.147,5.778,45.51523803,7.293177419,-2.14,0.46,21.09672897,-12.56086957,21.81014493,10.19,10.12,1.26E+18,517091.19,10.11,38.01653699,-122.0125098,0.100000001,0,0,0,0,0,8,RTK Integer (6),RTK Integer (6),,342.0007997,0,0,,0,0,0,0,0,0,0,0,0,0,0,0,1.19,0.2,1.26E+18,517091.19,0.18,38.01644467,-122.0130149,24.26809311,0.393796204,2.089804984,0.140658558,-0.019,2.094533289,11,RTK Integer (6),gxInteger (24),RTK Integer (6),69.82562165,2.094332629,0.896449766,3.850600809,-0.12563335,-0.117799679,-0.81722783,-0.095683952,-0.130634377,-0.819329647,1.172721454,0.572213865,-10.96356372,1.5726,0.4014,-10.921
1.2,0.21,1260315491,517091.2,69.83,1,45.125,5.784,45.49417854,7.304190045,-2.17,0.59,20.79493088,-9.803389831,21.69471154,10.2,10.13,1.26E+18,517091.2,10.12,38.01653699,-122.0125098,0.100000001,0,0,0,0,0,8,RTK Integer (6),RTK Integer (6),,342.0007997,0,0,,0,0,0,0,0,0,0,0,0,0,0,0,1.2,0.21,1.26E+18,517091.2,0.19,38.01644473,-122.0130147,24.26835823,0.41480243,2.101767755,0.144307467,-0.0173,2.106716008,11,RTK Integer (6),gxInteger (24),RTK Integer (6),69.81714187,2.092613755,0.894387118,3.927766404,-0.179993551,-0.15720547,-0.75220679,-0.152406774,-0.16902255,-0.755731332,1.184335617,0.365766107,-9.622219724,1.5349,0.2163,-9.5771
1.21,0.22,1260315491,517091.21,69.83,1,45.104,5.789,45.47398528,7.313802728,-2.17,0.5,20.78525346,-11.578,21.58086124,10.21,10.14,1.26E+18,517091.21,10.13,38.01653699,-122.0125098,0.100000001,0,0,0,0,0,8,RTK Integer (6),RTK Integer (6),,342.0007997,0,0,,0,0,0,0,0,0,0,0,0,0,0,0,1.21,0.22,1.26E+18,517091.21,0.2,38.01644478,-122.0130145,24.26850319,0.435924468,2.112908693,0.143800684,-0.0141,2.117796444,11,RTK Integer (6),gxInteger (24),RTK Integer (6),69.80923505,2.090321924,0.892037991,3.893441554,-0.236778639,-0.231758653,-0.785126051,-0.20798368,-0.244080021,-0.789535842,1.116591321,-0.085224768,-9.481907383,1.4617,-0.2321,-9.4324
1.22,0.23,1260315491,517091.22,69.82,1,45.082,5.795,45.45292894,7.324834904,-2.18,0.45,20.67981651,-12.87777778,21.46761905,10.22,10.15,1.26E+18,517091.22,10.14,38.01653699,-122.0125098,0.100000001,0,0,0,0,0,8,RTK Integer (6),RTK Integer (6),,342.0007997,0,0,,0,0,0,0,0,0,0,0,0,0,0,0,1.22,0.23,1.26E+18,517091.22,0.21,38.01644484,-122.0130142,24.26860809,0.457158634,2.124171292,0.142406639,-0.0108,2.128939485,11,RTK Integer (6),gxInteger (24),RTK Integer (6),69.80069798,2.087227952,0.889860752,3.835429043,-0.216703552,-0.309886424,-0.849001946,-0.185638326,-0.323148196,-0.851415284,1.13446343,-0.170637082,-9.466785132,1.4785,-0.3169,-9.4154
1.23,0.24,1260315491,517091.23,69.81,1,45.06,5.8,45.43174661,7.334626489,-2.19,0.47,20.57534247,-12.34042553,21.35545024,10.23,10.16,1.26E+18,517091.23,10.15,38.01653699,-122.0125098,0.100000001,0,0,0,0,0,8,RTK Integer (6),RTK Integer (6),,342.0007997,0,0,,0,0,0,0,0,0,0,0,0,0,0,0,1.23,0.24,1.26E+18,517091.23,0.22,38.0164449,-122.013014,24.26892853,0.478508796,2.136151044,0.145446511,-0.0233,2.141096908,11,RTK Integer (6),gxInteger (24),RTK Integer (6),69.79187443,2.086540403,0.888313766,3.895150107,-0.128806067,-0.055764537,-0.797221777,-0.099694656,-0.068181978,-0.80042204,1.188390002,0.302655399,-11.04942379,1.5899,0.1321,-11.0022
1.24,0.25,1260315491,517091.24,69.8,1,45.038,5.806,45.41069345,7.345678581,-2.21,0.53,20.37918552,-10.95471698,21.24433962,10.24,10.17,1.26E+18,517091.24,10.16,38.01653699,-122.0125098,0.100000001,0,0,0,0,0,8,RTK Integer (6),RTK Integer (6),,342.0007997,0,0,,0,0,0,0,0,0,0,0,0,0,0,0,1.24,0.25,1.26E+18,517091.24,0.23,38.01644496,-122.0130138,24.26899147,0.499974391,2.147245471,0.143364526,-0.0064,2.152026138,11,RTK Integer (6),gxInteger (24),RTK Integer (6),69.78316547,2.082472402,0.886537596,3.819781764,-0.176430559,-0.408877489,-0.862890539,-0.144958322,-0.422269895,-0.862301482,1.108307807,-0.238301167,-8.11338495,1.4024,-0.3631,-8.0631
1.25,0.26,1260315491,517091.25,69.79,1,45.016,5.812,45.38964199,7.356740925,-2.22,0.48,20.27747748,-12.10833333,21.03551402,10.25,10.18,1.26E+18,517091.25,10.17,38.01653699,-122.0125098,0.100000001,0,0,0,0,0,8,RTK Integer (6),RTK Integer (6),,342.0007997,0,0,,0,0,0,0,0,0,0,0,0,0,0,0,1.25,0.26,1.26E+18,517091.25,0.24,38.01644501,-122.0130135,24.26916885,0.521550212,2.158385564,0.144917067,-0.018,2.163245062,11,RTK Integer (6),gxInteger (24),RTK Integer (6),69.7746857,2.080982712,0.885563568,3.841154862,-0.099571743,-0.155905398,-0.846858524,-0.068754935,-0.16902255,-0.847404579,1.117907827,0.123445283,-10.95861599,1.5151,-0.0452,-10.9114
1.26,0.27,1260315491,517091.26,69.78,1,44.993,5.817,45.36747225,7.366722992,-2.23,0.54,20.17623318,-10.77222222,20.92697674,10.26,10.19,1.26E+18,517091.26,10.18,38.01653699,-122.0125098,0.100000001,0,0,0,0,0,8,RTK Integer (6),RTK Integer (6),,342.0007997,0,0,,0,0,0,0,0,0,0,0,0,0,0,0,1.26,0.27,1.26E+18,517091.26,0.25,38.01644507,-122.0130133,24.26934433,0.543246557,2.170568021,0.152587935,-0.0091,2.175924771,11,RTK Integer (6),gxInteger (24),RTK Integer (6),69.76683618,2.077373078,0.884188469,4.021198778,-0.116658215,-0.345515277,-0.702949508,-0.091100289,-0.356379749,-0.701300341,1.207240667,0.765422847,-8.903755734,1.5292,0.6287,-8.8649
1.27,0.28,1260315491,517091.27,69.77,1,44.971,5.823,45.346424,7.377805648,-2.24,0.52,20.07633929,-11.19807692,20.81990741,10.27,10.2,1.26E+18,517091.27,10.19,38.01653699,-122.0125098,0.100000001,0,0,0,0,0,8,RTK Integer (6),RTK Integer (6),,342.0007997,0,0,,0,0,0,0,0,0,0,0,0,0,0,0,1.27,0.28,1.26E+18,517091.27,0.26,38.01644513,-122.0130131,24.2694416,0.565056411,2.181268293,0.142930035,-0.0097,2.185946102,11,RTK Integer (6),gxInteger (24),RTK Integer (6),69.75761156,2.073992627,0.885219793,3.749010254,0.106235484,-0.340411334,-0.929420314,0.139801702,-0.354660875,-0.919597261,1.077628152,-1.003815303,-9.858436989,1.4337,-1.1553,-9.7963
1.28,0.29,1260315491,517091.28,69.77,1,44.948,5.828,45.32425717,7.387807536,-2.24,0.4,20.06607143,-14.57,20.71336406,10.28,10.21,1.26E+18,517091.28,10.2,38.01653699,-122.0125098,0.100000001,0,0,0,0,0,8,RTK Integer (6),RTK Integer (6),,342.0007997,0,0,,0,0,0,0,0,0,0,0,0,0,0,0,1.28,0.29,1.26E+18,517091.28,0.27,38.01644519,-122.0130128,24.26946831,0.58696785,2.19148821,0.147559629,-0.0024,2.196450414,11,RTK Integer (6),gxInteger (24),RTK Integer (6),69.74924637,2.069007894,0.884704131,3.852086292,-0.051953123,-0.502235341,-0.835020085,-0.021772396,-0.515089058,-0.828496972,1.017020586,0.436217931,-9.075175435,1.344,0.2967,-9.0382
1.29,0.3,1260315491,517091.29,69.76,1,44.925,5.834,45.30222049,7.399073429,-2.27,0.59,19.7907489,-9.888135593,20.60779817,10.29,10.22,1.26E+18,517091.29,10.21,38.01653699,-122.0125098,0.100000001,0,0,0,0,0,8,RTK Integer (6),RTK Integer (6),,342.0007997,0,0,,0,0,0,0,0,0,0,0,0,0,0,0,1.29,0.3,1.26E+18,517091.29,0.28,38.01644525,-122.0130126,24.26975632,0.608981243,2.201702798,0.141301662,-0.0173,2.206232393,11,RTK Integer (6),gxInteger (24),RTK Integer (6),69.73858936,2.066945246,0.885563568,3.672112719,0.109760811,-0.192146006,-0.993753532,0.14553128,-0.207410722,-0.986060365,1.018582733,-0.633616422,-11.28671653,1.425,-0.8073,-11.2315
1.3,0.31,1260315491,517091.3,69.75,1,44.903,5.839,45.28104824,7.408932322,-2.27,0.51,19.78105727,-11.44901961,20.50365297,10.3,10.23,1.26E+18,517091.3,10.22,38.01653699,-122.0125098,0.100000001,0,0,0,0,0,8,RTK Integer (6),RTK Integer (6),,342.0007997,0,0,,0,0,0,0,0,0,0,0,0,0,0,0,1.3,0.31,1.26E+18,517091.3,0.29,38.01644531,-122.0130123,24.26987267,0.631102513,2.21279719,0.152208035,-0.0117,2.218025854,11,RTK Integer (6),gxInteger (24),RTK Integer (6),69.73079713,2.06390857,0.886021934,3.934912304,0.047384852,-0.307640525,-0.785143328,0.075630429,-0.31971045,-0.778076686,1.108056479,1.053908244,-9.234197821,1.4399,0.9117,-9.2035
1.31,0.32,1260315491,517091.31,69.74,1,44.88,5.847,45.25927318,7.422729943,-2.3,0.64,19.51304348,-9.1359375,20.4,10.31,10.24,1.26E+18,517091.31,10.23,38.01653699,-122.0125098,0.100000001,0,0,0,0,0,8,RTK Integer (6),RTK Integer (6),,342.0007997,0,0,,0,0,0,0,0,0,0,0,0,0,0,0,1.31,0.32,1.26E+18,517091.31,0.3,38.01644536,-122.0130121,24.26996422,0.653331154,2.222774099,0.146558369,-0.0093,2.227600514,11,RTK Integer (6),gxInteger (24),RTK Integer (6),69.72157251,2.060470823,0.887053258,3.772330695,0.104284481,-0.346163848,-0.925977233,0.137509871,-0.360390453,-0.916159514,1.003964737,-0.601941104,-9.558936646,1.347,-0.7492,-9.5062
1.32,0.33,1260315491,517091.32,69.73,1,44.857,5.852,45.23711256,7.432773109,-2.29,0.46,19.58820961,-12.72173913,20.29728507,10.32,10.25,1.26E+18,517091.32,10.24,38.01653699,-122.0125098,0.100000001,0,0,0,0,0,8,RTK Integer (6),RTK Integer (6),,342.0007997,0,0,,0,0,0,0,0,0,0,0,0,0,0,0,1.32,0.33,1.26E+18,517091.32,0.31,38.01644543,-122.0130119,24.27012825,0.675661778,2.233591877,0.150182215,-0.0054,2.238635158,11,RTK Integer (6),gxInteger (24),RTK Integer (6),69.7122333,2.056059048,0.887282442,3.846662822,0.047041152,-0.431359702,-0.861586405,0.07792226,-0.444615249,-0.852561199,1.07341832,0.363643054,-9.414664864,1.4105,0.2185,-9.3746
1.33,0.34,1260315491,517091.33,69.72,1,44.834,5.858,45.21508288,7.444082626,-2.32,0.58,19.325,-10.1,20.1954955,10.33,10.26,1.26E+18,517091.33,10.25,38.01653699,-122.0125098,0.100000001,0,0,0,0,0,8,RTK Integer (6),RTK Integer (6),,342.0007997,0,0,,0,0,0,0,0,0,0,0,0,0,0,0,1.33,0.34,1.26E+18,517091.33,0.32,38.01644549,-122.0130116,24.27026176,0.698098877,2.244077107,0.145495622,-0.0127,2.248788794,11,RTK Integer (6),gxInteger (24),RTK Integer (6),69.70243572,2.053194259,0.888944019,3.709602277,0.164095026,-0.292485418,-0.988062332,0.199389313,-0.307678336,-0.976893041,1.045732088,-0.50957737,-10.52378916,1.4221,-0.6721,-10.4704
1.34,0.35,1260315491,517091.34,69.71,1,44.81,5.864,45.19206342,7.455567675,-2.32,0.52,19.31465517,-11.27692308,20.0941704,10.34,10.27,1.26E+18,517091.34,10.26,38.01653699,-122.0125098,0.100000001,0,0,0,0,0,8,RTK Integer (6),RTK Integer (6),,342.0007997,0,0,,0,0,0,0,0,0,0,0,0,0,0,0,1.34,0.35,1.26E+18,517091.34,0.33,38.01644555,-122.0130114,24.27030754,0.720639639,2.254154698,0.153396368,-0.0064,2.25936802,11,RTK Integer (6),gxInteger (24),RTK Integer (6),69.69412783,2.048782484,0.891293146,3.893004856,0.236978372,-0.444286334,-0.843947634,0.266998333,-0.457220321,-0.827924014,1.013186917,0.749635269,-9.173630042,1.3405,0.6075,-9.1421
1.35,0.36,1260315491,517091.35,69.7,1,44.787,5.871,45.17016726,7.468157274,-2.34,0.63,19.13974359,-9.319047619,19.99419643,10.35,10.28,1.26E+18,517091.35,10.27,38.01653699,-122.0125098,0.100000001,0,0,0,0,0,8,RTK Integer (6),RTK Integer (6),,342.0007997,0,0,,0,0,0,0,0,0,0,0,0,0,0,0,1.35,0.36,1.26E+18,517091.35,0.34,38.01644561,-122.0130111,24.27051926,0.743282908,2.264344198,0.148096763,-0.0106,2.269182077,11,RTK Integer (6),gxInteger (24),RTK Integer (6),69.6837573,2.045287441,0.892267174,3.742033275,0.11674165,-0.337963256,-0.969295142,0.151260858,-0.352942002,-0.959131349,1.017710404,-0.540186327,-10.21977821,1.3818,-0.6986,-10.1673
1.36,0.37,1260315491,517091.36,69.69,1,44.764,5.876,45.14801294,7.478242555,-2.34,0.51,19.12991453,-11.52156863,19.89511111,10.36,10.29,1.26E+18,517091.36,10.28,38.01653699,-122.0125098,0.100000001,0,0,0,0,0,8,RTK Integer (6),RTK Integer (6),,342.0007997,0,0,,0,0,0,0,0,0,0,0,0,0,0,0,1.36,0.37,1.26E+18,517091.36,0.35,38.01644567,-122.0130109,24.27057457,0.766022727,2.27401295,0.149079686,-0.0052,2.278894392,11,RTK Integer (6),gxInteger (24),RTK Integer (6),69.6741889,2.040761075,0.892209879,3.750827973,-0.00437106,-0.454376534,-0.95932722,0.029793805,-0.469252434,-0.951682898,0.965474523,0.065134274,-9.25115109,1.2943,-0.0783,-9.2108
1.37,0.38,1260315491,517091.37,69.68,1,44.74,5.883,45.12512924,7.491020973,-2.36,0.61,18.95762712,-9.644262295,19.79646018,10.37,10.3,1.26E+18,517091.37,10.29,38.01653699,-122.0125098,0.100000001,0,0,0,0,0,8,RTK Integer (6),RTK Integer (6),,342.0007997,0,0,,0,0,0,0,0,0,0,0,0,0,0,0,1.37,0.38,1.26E+18,517091.37,0.36,38.01644573,-122.0130106,24.27070999,0.788856856,2.283025364,0.149818016,-0.0125,2.287935805,11,RTK Integer (6),gxInteger (24),RTK Integer (6),69.6647351,2.037609807,0.892954724,3.754513698,0.076800467,-0.314713283,-0.951440553,0.110580854,-0.329450732,-0.943088531,0.906750646,0.032655149,-10.53346584,1.2807,-0.1309,-10.4938
1.38,0.39,1260315491,517091.38,69.67,1,44.716,5.889,45.10211721,7.50255288,-2.37,0.6,18.86751055,-9.815,19.69867841,10.38,10.31,1.26E+18,517091.38,10.3,38.01653699,-122.0125098,0.100000001,0,0,0,0,0,8,RTK Integer (6),RTK Integer (6),,342.0007997,0,0,,0,0,0,0,0,0,0,0,0,0,0,0,1.38,0.39,1.26E+18,517091.38,0.37,38.0164458,-122.0130104,24.27091408,0.811784039,2.292567105,0.148875819,-0.0104,2.297395904,11,RTK Integer (6),gxInteger (24),RTK Integer (6),69.65430727,2.033828285,0.891006667,3.715483843,-0.171524803,-0.36930624,-0.971549141,-0.136936913,-0.384454681,-0.971163463,0.941891252,-0.106761046,-9.585980489,1.2815,-0.2552,-9.5437
1.39,0.4,1260315491,517091.39,69.66,1,44.692,5.895,45.07910701,7.51409656,-2.38,0.59,18.77815126,-9.991525424,19.60175439,10.39,10.32,1.26E+18,517091.39,10.31,38.01653699,-122.0125098,0.100000001,0,0,0,0,0,8,RTK Integer (6),RTK Integer (6),,342.0007997,0,0,,0,0,0,0,0,0,0,0,0,0,0,0,1.39,0.4,1.26E+18,517091.39,0.38,38.01644586,-122.0130101,24.27103233,0.834812363,2.302842757,0.158242866,-0.0125,2.308273288,11,RTK Integer (6),gxInteger (24),RTK Integer (6),69.64628586,2.030734313,0.889975343,3.930975271,-0.105164165,-0.310148366,-0.799246801,-0.076776345,-0.322575239,-0.797557251,1.027306404,0.908094286,-10.00798589,1.3813,0.7532,-9.9782
1.4,0.41,1260315491,517091.4,69.65,1,44.668,5.903,45.05636063,7.528173417,-2.39,0.61,18.68953975,-9.67704918,19.50567686,10.4,10.33,1.26E+18,517091.4,10.32,38.01653699,-122.0125098,0.100000001,0,0,0,0,0,8,RTK Integer (6),RTK Integer (6),,342.0007997,0,0,,0,0,0,0,0,0,0,0,0,0,0,0,1.4,0.41,1.26E+18,517091.4,0.39,38.01644592,-122.0130099,24.27110672,0.857935935,2.311720122,0.14788309,-0.0073,2.316445408,11,RTK Integer (6),gxInteger (24),RTK Integer (6),69.63597262,2.026551721,0.887397033,3.660281818,-0.255277232,-0.422931514,-1.025028249,-0.218869878,-0.438885671,-1.026740369,0.89447243,-1.084733643,-9.283445873,1.2222,-1.2278,-9.2281
1.41,0.42,1260315491,517091.41,69.65,1,44.644,5.907,45.03309211,7.537219308,-2.38,0.47,18.75798319,-12.56808511,19.41043478,10.41,10.34,1.26E+18,517091.41,10.33,38.01653699,-122.0125098,0.100000001,0,0,0,0,0,8,RTK Integer (6),RTK Integer (6),,342.0007997,0,0,,0,0,0,0,0,0,0,0,0,0,0,0,1.41,0.42,1.26E+18,517091.41,0.4,38.01644598,-122.0130096,24.27131271,0.881155375,2.322124837,0.158938481,-0.0084,2.327557776,11,RTK Integer (6),gxInteger (24),RTK Integer (6),69.62714907,2.022884791,0.886652188,3.915518784,-0.043445733,-0.365676499,-0.808012288,-0.014896903,-0.378152145,-0.803286829,1.039745022,1.112430207,-9.904140366,1.3887,0.9597,-9.8773
1.42,0.43,1260315491,517091.42,69.64,1,44.62,5.914,45.0102188,7.550060328,-2.42,0.65,18.43801653,-9.098461538,19.31601732,10.42,10.35,1.26E+18,517091.42,10.34,38.01653699,-122.0125098,0.100000001,0,0,0,0,0,8,RTK Integer (6),RTK Integer (6),,342.0007997,0,0,,0,0,0,0,0,0,0,0,0,0,0,0,1.42,0.43,1.26E+18,517091.42,0.41,38.01644604,-122.0130094,24.27140617,0.904482958,2.332413755,0.159367794,-0.0107,2.33785201,11,RTK Integer (6),gxInteger (24),RTK Integer (6),69.61895577,2.020134594,0.884818723,3.908796922,-0.18018484,-0.280675854,-0.81734549,-0.151260858,-0.293354391,-0.818756689,1.034448387,0.004697699,-10.02801554,1.3873,-0.1495,-9.9842
1.43,0.44,1260315491,517091.43,69.63,1,44.596,5.92,44.98721614,7.561651884,-2.4,0.47,18.58166667,-12.59574468,19.22241379,10.43,10.36,1.26E+18,517091.43,10.35,38.01653699,-122.0125098,0.100000001,0,0,0,0,0,8,RTK Integer (6),RTK Integer (6),,342.0007997,0,0,,0,0,0,0,0,0,0,0,0,0,0,0,1.43,0.44,1.26E+18,517091.43,0.42,38.0164461,-122.0130091,24.27151108,0.927908321,2.342045575,0.155848307,-0.005,2.347225206,11,RTK Integer (6),gxInteger (24),RTK Integer (6),69.61013222,2.016009298,0.886251118,3.807058738,0.14003762,-0.418355085,-0.891545253,0.171314381,-0.432010178,-0.879490216,0.961089341,-0.390591561,-9.230163925,1.2852,-0.5327,-9.1835
1.44,0.45,1260315491,517091.44,69.62,1,44.572,5.925,44.96408354,7.571992157,-2.42,0.48,18.41818182,-12.34375,19.12961373,10.44,10.37,1.26E+18,517091.44,10.36,38.01653699,-122.0125098,0.100000001,0,0,0,0,0,8,RTK Integer (6),RTK Integer (6),,342.0007997,0,0,,0,0,0,0,0,0,0,0,0,0,0,0,1.44,0.45,1.26E+18,517091.44,0.43,38.01644617,-122.0130089,24.27168274,0.951423776,2.350502053,0.158947917,-0.0056,2.355870187,11,RTK Integer (6),gxInteger (24),RTK Integer (6),69.60102219,2.011540227,0.885964639,3.868620746,0.005973899,-0.445985197,-0.84195163,0.035523383,-0.458939194,-0.83422655,0.848251263,0.310888089,-9.856515083,1.1937,0.159,-9.8243
1.45,0.46,1260315491,517091.45,69.61,1,44.548,5.93,44.94095242,7.582343075,-2.43,0.54,18.33251029,-10.98148148,19.03760684,10.45,10.38,1.26E+18,517091.45,10.37,38.01653699,-122.0125098,0.100000001,0,0,0,0,0,8,RTK Integer (6),RTK Integer (6),,342.0007997,0,0,,0,0,0,0,0,0,0,0,0,0,0,0,1.45,0.46,1.26E+18,517091.45,0.44,38.01644623,-122.0130086,24.2718544,0.97502692,2.359424054,0.160482746,-0.0169,2.364875595,11,RTK Integer (6),gxInteger (24),RTK Integer (6),69.5927143,2.009477579,0.887969991,3.89113745,0.200466468,-0.209450275,-0.838814929,0.229756076,-0.222307625,-0.827924014,0.887021673,0.12378811,-10.93471789,1.2699,-0.0451,-10.8975
1.46,0.47,1260315491,517091.46,69.6,1,44.523,5.937,44.91709583,7.595402009,-2.44,0.5,18.24713115,-11.874,18.94595745,10.46,10.39,1.26E+18,517091.46,10.38,38.01653699,-122.0125098,0.100000001,0,0,0,0,0,8,RTK Integer (6),RTK Integer (6),,342.0007997,0,0,,0,0,0,0,0,0,0,0,0,0,0,0,1.46,0.47,1.26E+18,517091.46,0.45,38.0164463,-122.0130083,24.2719593,0.998724871,2.368948682,0.163820849,-0.0161,2.374606311,11,RTK Integer (6),gxInteger (24),RTK Integer (6),69.58497937,2.007586818,0.885162498,3.955899848,-0.278085165,-0.190818232,-0.769556152,-0.250955514,-0.202827059,-0.775784855,0.959019516,0.295564659,-9.718850735,1.2989,0.146,-9.6827
1.47,0.48,1260315491,517091.47,69.59,1,44.499,5.942,44.89396802,7.605775821,-2.44,0.49,18.23729508,-12.12653061,18.85550847,10.47,10.4,1.26E+18,517091.47,10.39,38.01653699,-122.0125098,0.100000001,0,0,0,0,0,8,RTK Integer (6),RTK Integer (6),,342.0007997,0,0,,0,0,0,0,0,0,0,0,0,0,0,0,1.47,0.48,1.26E+18,517091.47,0.46,38.01644637,-122.0130081,24.27211571,1.022515651,2.378248775,0.158944655,-0.0044,2.383554203,11,RTK Integer (6),gxInteger (24),RTK Integer (6),69.57529639,2.003461522,0.885907343,3.823542474,0.101310556,-0.412383464,-0.906112571,0.132926208,-0.4262806,-0.895533034,0.933148394,-0.493037656,-8.621942333,1.234,-0.6257,-8.5754
1.48,0.49,1260315491,517091.48,69.58,1,44.474,5.946,44.86971798,7.615063895,-2.45,0.43,18.15265306,-13.82790698,18.76540084,10.48,10.41,1.26E+18,517091.48,10.4,38.01653699,-122.0125098,0.100000001,0,0,0,0,0,8,RTK Integer (6),RTK Integer (6),,342.0007997,0,0,,0,0,0,0,0,0,0,0,0,0,0,0,1.48,0.49,1.26E+18,517091.48,0.47,38.01644643,-122.0130078,24.27224731,1.04640134,2.387287214,0.173561341,-0.0126,2.393588056,11,RTK Integer (6),gxInteger (24),RTK Integer (6),69.56922303,2.001055099,0.886480301,4.158220666,0.05939571,-0.245539386,-0.613655442,0.080787049,-0.254966219,-0.607335263,0.902084879,1.437562775,-10.61819931,1.2723,1.2737,-10.6012
1.49,0.5,1260315491,517091.49,69.58,1,44.449,5.953,44.84586726,7.628160975,-2.47,0.55,17.99554656,-10.82363636,18.67605042,10.49,10.42,1.26E+18,517091.49,10.41,38.01653699,-122.0125098,0.100000001,0,0,0,0,0,8,RTK Integer (6),RTK Integer (6),,342.0007997,0,0,,0,0,0,0,0,0,0,0,0,0,0,0,1.49,0.5,1.26E+18,517091.49,0.48,38.01644649,-122.0130076,24.27233315,1.070377636,2.395992024,0.16678711,-0.0058,2.401790107,11,RTK Integer (6),gxInteger (24),RTK Integer (6),69.56143081,1.997101691,0.886365709,3.981986049,-0.011078523,-0.394812488,-0.778061273,0.016042818,-0.406800035,-0.77177415,0.878230441,-0.705471368,-9.119444731,1.1955,-0.8459,-9.0713
1.5,0.51,1260315492,517091.5,69.57,1,44.425,5.956,44.8224783,7.636034295,-2.45,0.3,18.13265306,-19.85333333,18.58786611,10.5,10.43,1.26E+18,517091.5,10.42,38.01653699,-122.0125098,0.100000001,0,0,0,0,0,8,RTK Integer (6),RTK Integer (6),,342.0007997,0,0,,0,0,0,0,0,0,0,0,0,0,0,0,1.5,0.51,1.26E+18,517091.5,0.49,38.01644656,-122.0130073,24.27261925,1.094438112,2.404439642,0.166460866,-0.0178,2.410194849,11,RTK Integer (6),gxInteger (24),RTK Integer (6),69.55289374,1.995669296,0.88716785,3.960303778,0.105188432,-0.147003003,-0.798346286,0.132926208,-0.159282267,-0.791827673,0.840370071,-0.034409536,-11.00218561,1.223,-0.2042,-10.9644
1.51,0.52,1260315492,517091.51,69.56,1,44.4,5.961,44.79836516,7.646621169,-2.48,0.44,17.90322581,-13.54772727,18.5,10.51,10.44,1.26E+18,517091.51,10.43,38.01653699,-122.0125098,0.100000001,0,0,0,0,0,8,RTK Integer (6),RTK Integer (6),,342.0007997,0,0,,0,0,0,0,0,0,0,0,0,0,0,0,1.51,0.52,1.26E+18,517091.51,0.5,38.01644662,-122.013007,24.27272415,1.118589272,2.413713234,0.173303326,-0.0114,2.41992678,11,RTK Integer (6),gxInteger (24),RTK Integer (6),69.54619013,1.99303369,0.886995963,4.106759145,-0.016999714,-0.262388749,-0.669733042,0.006302536,-0.27272791,-0.665776958,0.926994361,0.653604823,-9.154251102,1.2448,0.5124,-9.1255
1.52,0.53,1260315492,517091.52,69.55,1,44.375,5.966,44.77425355,7.657219447,-2.49,0.45,17.82128514,-13.25777778,18.48958333,10.52,10.45,1.26E+18,517091.52,10.44,38.01653699,-122.0125098,0.100000001,0,0,0,0,0,8,RTK Integer (6),RTK Integer (6),,342.0007997,0,0,,0,0,0,0,0,0,0,0,0,0,0,0,1.52,0.53,1.26E+18,517091.52,0.51,38.01644668,-122.0130068,24.27283478,1.142830069,2.422392458,0.170035373,-0.0104,2.428352785,11,RTK Integer (6),gxInteger (24),RTK Integer (6),69.53868438,1.990283493,0.886365709,4.01518589,-0.060618478,-0.281690635,-0.754518586,-0.034377468,-0.293354391,-0.751720627,0.870693765,-0.365637594,-9.707208679,1.2073,-0.5152,-9.6643
1.53,0.54,1260315492,517091.53,69.55,1,44.35,5.97,44.75001006,7.666560241,-2.48,0.35,17.88306452,-17.05714286,18.40248963,10.53,10.46,1.26E+18,517091.53,10.45,38.01653699,-122.0125098,0.100000001,0,0,0,0,0,8,RTK Integer (6),RTK Integer (6),,342.0007997,0,0,,0,0,0,0,0,0,0,0,0,0,0,0,1.53,0.54,1.26E+18,517091.53,0.52,38.01644675,-122.0130065,24.27308083,1.167160335,2.431288198,0.176756951,-0.0089,2.437704929,11,RTK Integer (6),gxInteger (24),RTK Integer (6),69.531637,1.987246817,0.885047906,4.158141803,-0.102320777,-0.301538529,-0.619204661,-0.080787049,-0.311116083,-0.617648503,0.892977351,0.682538246,-9.647872213,1.227,0.534,-9.6205
1.54,0.55,1260315492,517091.54,69.54,1,44.326,5.974,44.72675879,7.675740057,-2.5,0.41,17.7304,-14.57073171,18.31652893,10.54,10.47,1.26E+18,517091.54,10.46,38.01653699,-122.0125098,0.100000001,0,0,0,0,0,8,RTK Integer (6),RTK Integer (6),,342.0007997,0,0,,0,0,0,0,0,0,0,0,0,0,0,0,1.54,0.55,1.26E+18,517091.54,0.53,38.01644681,-122.0130062,24.27325058,1.19157499,2.439033821,0.173976147,-0.0161,2.445230803,11,RTK Integer (6),gxInteger (24),RTK Integer (6),69.52464692,1.985585239,0.88607923,4.079994522,0.101661011,-0.171369055,-0.705688612,0.126050715,-0.182200579,-0.69900851,0.777848139,-0.310901442,-10.51772767,1.1418,-0.473,-10.4784
1.55,0.56,1260315492,517091.55,69.53,1,44.3,5.979,44.70166038,7.686542448,-2.49,0.3,17.79116466,-19.93,18.23045267,10.55,10.48,1.26E+18,517091.55,10.47,38.01653699,-122.0125098,0.100000001,0,0,0,0,0,8,RTK Integer (6),RTK Integer (6),,342.0007997,0,0,,0,0,0,0,0,0,0,0,0,0,0,0,1.55,0.56,1.26E+18,517091.55,0.54,38.01644688,-122.013006,24.27339745,1.216065358,2.446491349,0.174838117,-0.0139,2.452730782,11,RTK Integer (6),gxInteger (24),RTK Integer (6),69.51737035,1.983064225,0.88567816,4.087684361,-0.037897392,-0.255727625,-0.730249614,-0.012605071,-0.266998333,-0.727083442,0.742570676,0.059443531,-9.576152639,1.0735,-0.0881,-9.5445
1.56,0.57,1260315492,517091.56,69.52,1,44.275,5.982,44.67728672,7.694643444,-2.51,0.37,17.63944223,-16.16756757,18.1454918,10.56,10.49,1.26E+18,517091.56,10.48,38.01653699,-122.0125098,0.100000001,0,0,0,0,0,8,RTK Integer (6),RTK Integer (6),,342.0007997,0,0,,0,0,0,0,0,0,0,0,0,0,0,0,1.56,0.57,1.26E+18,517091.56,0.55,38.01644695,-122.0130057,24.2737751,1.240618744,2.452260597,0.168868271,-0.023,2.458068048,11,RTK Integer (6),gxInteger (24),RTK Integer (6),69.50791655,1.981689126,0.884245765,3.939299474,-0.116497675,-0.135009132,-0.864987948,-0.086516627,-0.148396069,-0.866312186,0.582886115,-0.612542318,-10.70738497,0.9528,-0.7773,-10.6701
1.57,0.58,1260315492,517091.57,69.52,1,44.25,5.986,44.653048,7.704024839,-2.52,0.39,17.55952381,-15.34871795,18.06122449,10.57,10.5,1.26E+18,517091.57,10.49,38.01653699,-122.0125098,0.100000001,0,0,0,0,0,8,RTK Integer (6),RTK Integer (6),,342.0007997,0,0,,0,0,0,0,0,0,0,0,0,0,0,0,1.57,0.58,1.26E+18,517091.57,0.56,38.01644701,-122.0130054,24.27394676,1.265241396,2.460009317,0.178365943,-0.0173,2.46646716,11,RTK Integer (6),gxInteger (24),RTK Integer (6),69.50104106,1.979282703,0.880979906,4.14704256,-0.324975406,-0.242690114,-0.67767768,-0.3013758,-0.253247345,-0.684684565,0.77256914,0.919875342,-9.23303587,1.091,0.7783,-9.2139
1.58,0.59,1260315492,517091.58,69.51,1,44.225,5.993,44.62921324,7.717233028,-2.54,0.5,17.41141732,-11.986,18.05102041,10.58,10.51,1.26E+18,517091.58,10.5,38.01653699,-122.0125098,0.100000001,0,0,0,0,0,8,RTK Integer (6),RTK Integer (6),,342.0007997,0,0,,0,0,0,0,0,0,0,0,0,0,0,0,1.58,0.59,1.26E+18,517091.58,0.57,38.01644707,-122.0130052,24.27404022,1.289945833,2.468210777,0.175254247,-0.0148,2.474424881,11,RTK Integer (6),gxInteger (24),RTK Integer (6),69.49347801,1.976532506,0.879031849,4.061445916,-0.196205026,-0.280615271,-0.751513698,-0.170168465,-0.292208476,-0.753439501,0.819820955,-0.340190317,-9.540890056,1.1484,-0.486,-9.5006
1.59,0.6,1260315492,517091.59,69.5,1,44.199,5.996,44.60385204,7.725536626,-2.53,0.35,17.46996047,-17.13142857,17.96707317,10.59,10.52,1.26E+18,517091.59,10.51,38.01653699,-122.0125098,0.100000001,0,0,0,0,0,8,RTK Integer (6),RTK Integer (6),,342.0007997,0,0,,0,0,0,0,0,0,0,0,0,0,0,0,1.59,0.6,1.26E+18,517091.59,0.58,38.01644714,-122.0130049,24.27433968,1.314732726,2.476647334,0.175252448,-0.0157,2.482840196,11,RTK Integer (6),gxInteger (24),RTK Integer (6),69.48522742,1.974355266,0.875880581,4.047615498,-0.289437534,-0.213073348,-0.746110178,-0.263560586,-0.224599456,-0.752293585,0.843913974,-0.006272366,-9.888692357,1.1841,-0.1569,-9.8525
1.6,0.61,1260315492,517091.6,69.49,1,44.174,6.001,44.57975187,7.736223818,-2.55,0.41,17.32313725,-14.63658537,17.88421053,10.6,10.53,1.26E+18,517091.6,10.52,38.01653699,-122.0125098,0.100000001,0,0,0,0,0,8,RTK Integer (6),RTK Integer (6),,342.0007997,0,0,,0,0,0,0,0,0,0,0,0,0,0,0,1.6,0.61,1.26E+18,517091.6,0.59,38.01644721,-122.0130046,24.27445412,1.339599695,2.484592171,0.173993573,-0.0106,2.49067702,10,RTK Integer (6),gxInteger (24),RTK Integer (6),69.47714872,1.971032111,0.872901201,4.00582796,-0.296957986,-0.335498691,-0.799324092,-0.269290164,-0.347785382,-0.803859787,0.791665669,-0.160053829,-9.292339496,1.1108,-0.3011,-9.2561
1.61,0.62,1260315492,517091.61,69.49,1,44.148,6.006,44.55466238,7.747095916,-2.55,0.4,17.31294118,-15.015,17.8016129,10.61,10.54,1.26E+18,517091.61,10.53,38.01653699,-122.0125098,0.100000001,0,0,0,0,0,8,RTK Integer (6),RTK Integer (6),,342.0007997,0,0,,0,0,0,0,0,0,0,0,0,0,0,0,1.61,0.62,1.26E+18,517091.61,0.6,38.01644727,-122.0130044,24.27471733,1.364554329,2.494140874,0.174738408,-0.0228,2.500254429,10,RTK Integer (6),gxInteger (24),RTK Integer (6),69.46878353,1.969714308,0.871640694,4.007568729,-0.126092339,-0.134542515,-0.83252801,-0.097402825,-0.147250153,-0.83422655,0.965658675,0.038259371,-11.02119162,1.3439,-0.1288,-10.9808
1.62,0.63,1260315492,517091.62,69.48,1,44.122,6.011,44.5295745,7.757980265,-2.57,0.44,17.16809339,-13.66136364,17.79112903,10.62,10.55,1.26E+18,517091.62,10.54,38.01653699,-122.0125098,0.100000001,0,0,0,0,0,8,RTK Integer (6),RTK Integer (6),,342.0007997,0,0,,0,0,0,0,0,0,0,0,0,0,0,0,1.62,0.63,1.26E+18,517091.62,0.61,38.01644734,-122.0130041,24.27502441,1.389601097,2.503643442,0.16544705,-0.017,2.509104065,10,RTK Integer (6),gxInteger (24),RTK Integer (6),69.45766815,1.966849519,0.870838553,3.780752085,-0.054188201,-0.286100063,-1.043715415,-0.018334649,-0.301948758,-1.040491356,0.949159891,-0.946676521,-9.218755955,1.265,-1.0861,-9.1653
1.63,0.64,1260315492,517091.63,69.47,1,44.097,6.015,44.50534388,7.767427284,-2.58,0.47,17.09186047,-12.79787234,17.70963855,10.63,10.56,1.26E+18,517091.63,10.55,38.01653699,-122.0125098,0.100000001,0,0,0,0,0,8,RTK Integer (6),RTK Integer (6),,342.0007997,0,0,,0,0,0,0,0,0,0,0,0,0,0,0,1.63,0.64,1.26E+18,517091.63,0.62,38.01644741,-122.0130038,24.27520943,1.414743319,2.513100152,0.175566249,-0.0199,2.519225254,10,RTK Integer (6),gxInteger (24),RTK Integer (6),69.44918838,1.965016054,0.868661313,3.996214887,-0.216839338,-0.186580193,-0.839378105,-0.187930157,-0.199389313,-0.843393874,0.94446022,0.969406349,-10.09047721,1.2899,0.8169,-10.0657
1.64,0.65,1260315492,517091.64,69.46,1,44.07,6.023,44.47967434,7.782338351,-2.61,0.64,16.88505747,-9.4109375,17.628,10.64,10.57,1.26E+18,517091.64,10.56,38.01653699,-122.0125098,0.100000001,0,0,0,0,0,8,RTK Integer (6),RTK Integer (6),,342.0007997,0,0,,0,0,0,0,0,0,0,0,0,0,0,0,1.64,0.65,1.26E+18,517091.64,0.63,38.01644747,-122.0130035,24.27542877,1.439974732,2.52084649,0.177131545,-0.0206,2.527062051,10,RTK Integer (6),gxInteger (24),RTK Integer (6),69.44099508,1.963526364,0.869062384,4.019378508,0.038228472,-0.154267043,-0.824704122,0.066463104,-0.166730718,-0.820475563,0.775935848,0.120799095,-9.868279598,1.1136,-0.0284,-9.8366
1.65,0.66,1260315492,517091.65,69.45,1,44.044,6.028,44.45459166,7.793260947,-2.6,0.47,16.94,-12.82553191,17.54741036,10.65,10.58,1.26E+18,517091.65,10.57,38.01653699,-122.0125098,0.100000001,0,0,0,0,0,8,RTK Integer (6),RTK Integer (6),,342.0007997,0,0,,0,0,0,0,0,0,0,0,0,0,0,0,1.65,0.66,1.26E+18,517091.65,0.64,38.01644755,-122.0130033,24.27572632,1.465274102,2.527462096,0.1664549,-0.0205,2.532937402,10,RTK Integer (6),gxInteger (24),RTK Integer (6),69.42965052,1.962208561,0.870494778,3.767973566,0.167153131,-0.13212743,-1.07819884,0.203972975,-0.148396069,-1.069712204,0.663293935,-1.085375917,-9.786565627,0.998,-1.2335,-9.7405
1.66,0.67,1260315492,517091.66,69.44,1,44.018,6.032,44.42937483,7.802918227,-2.61,0.46,16.8651341,-13.11304348,17.46746032,10.66,10.59,1.26E+18,517091.66,10.58,38.01653699,-122.0125098,0.100000001,0,0,0,0,0,8,RTK Integer (6),RTK Integer (6),,342.0007997,0,0,,0,0,0,0,0,0,0,0,0,0,0,0,1.66,0.67,1.26E+18,517091.66,0.65,38.01644761,-122.013003,24.27592087,1.490638836,2.533683185,0.1775056,-0.017,2.539893447,10,RTK Integer (6),gxInteger (24),RTK Integer (6),69.42117074,1.959630251,0.87169799,4.0074984,0.122156625,-0.255837774,-0.853206325,0.151260858,-0.268717206,-0.84453979,0.619188779,1.065551615,-9.447878424,0.9419,0.9221,-9.4363
1.67,0.68,1260315492,517091.67,69.43,1,43.992,6.04,44.40470317,7.817699803,-2.64,0.66,16.66363636,-9.151515152,17.38814229,10.67,10.6,1.26E+18,517091.67,10.59,38.01653699,-122.0125098,0.100000001,0,0,0,0,0,8,RTK Integer (6),RTK Integer (6),,342.0007997,0,0,,0,0,0,0,0,0,0,0,0,0,0,0,1.67,0.68,1.26E+18,517091.67,0.66,38.01644768,-122.0130027,24.27617836,1.516068078,2.540139195,0.172058912,-0.025,2.545959819,10,RTK Integer (6),gxInteger (24),RTK Integer (6),69.41102939,1.958083265,0.872156356,3.875068648,0.048290084,-0.163305551,-1.018983816,0.08307888,-0.178762832,-1.014135297,0.656471992,-0.587344764,-10.60078548,1.0183,-0.7482,-10.562
1.68,0.69,1260315492,517091.68,69.42,1,43.966,6.045,44.37962574,7.828660834,-2.62,0.48,16.78091603,-12.59375,17.37786561,10.68,10.61,1.26E+18,517091.68,10.6,38.01653699,-122.0125098,0.100000001,0,0,0,0,0,8,RTK Integer (6),RTK Integer (6),,342.0007997,0,0,,0,0,0,0,0,0,0,0,0,0,0,0,1.68,0.69,1.26E+18,517091.68,0.67,38.01644775,-122.0130024,24.27641678,1.541560624,2.546309365,0.17844256,-0.0152,2.552554236,10,RTK Integer (6),gxInteger (24),RTK Integer (6),69.40151829,1.954015265,0.871125032,4.008671523,-0.08420331,-0.403042522,-0.888522974,-0.053858033,-0.416540317,-0.884646836,0.613634382,0.617217439,-8.816582226,0.9139,0.4835,-8.7989
1.69,0.7,1260315492,517091.69,69.41,1,43.939,6.051,44.3536957,7.841090179,-2.65,0.61,16.58075472,-9.919672131,17.2988189,10.69,10.62,1.26E+18,517091.69,10.61,38.01653699,-122.0125098,0.100000001,0,0,0,0,0,8,RTK Integer (6),RTK Integer (6),,342.0007997,0,0,,0,0,0,0,0,0,0,0,0,0,0,0,1.69,0.7,1.26E+18,517091.69,0.68,38.01644782,-122.0130021,24.27655602,1.567110424,2.551362068,0.177547732,-0.0122,2.557532326,10,RTK Integer (6),gxInteger (24),RTK Integer (6),69.39252285,1.949087827,0.869062384,3.98076081,-0.204144274,-0.493461157,-0.894403581,-0.173606212,-0.507067649,-0.893241203,0.506945276,-0.129607209,-9.50409706,0.8299,-0.2734,-9.4783
1.7,0.71,1260315492,517091.7,69.4,1,43.913,6.057,44.32875836,7.853357454,-2.64,0.5,16.63371212,-12.114,17.22078431,10.7,10.63,1.26E+18,517091.7,10.62,38.01653699,-122.0125098,0.100000001,0,0,0,0,0,8,RTK Integer (6),RTK Integer (6),,342.0007997,0,0,,0,0,0,0,0,0,0,0,0,0,0,0,1.7,0.71,1.26E+18,517091.7,0.69,38.01644788,-122.0130019,24.27675438,1.592719121,2.557653071,0.181570834,-0.0235,2.564089936,10,RTK Integer (6),gxInteger (24),RTK Integer (6),69.38432955,1.946566813,0.866770552,4.060683076,-0.227655763,-0.254642774,-0.811427107,-0.199962271,-0.266998333,-0.814745985,0.630465403,0.363246543,-10.92216969,1.0011,0.1984,-10.8987
1.71,0.72,1260315492,517091.71,69.39,1,43.886,6.063,44.30283247,7.865815523,-2.64,0.51,16.62348485,-11.88823529,17.21019608,10.71,10.64,1.26E+18,517091.71,10.63,38.01653699,-122.0125098,0.100000001,0,0,0,0,0,8,RTK Integer (6),RTK Integer (6),,342.0007997,0,0,,0,0,0,0,0,0,0,0,0,0,0,0,1.71,0.72,1.26E+18,517091.71,0.7,38.01644796,-122.0130016,24.27705956,1.618408235,2.566986502,0.186295322,-0.0221,2.573737681,10,RTK Integer (6),gxInteger (24),RTK Integer (6),69.37653733,1.944274982,0.865280862,4.150880847,-0.13052981,-0.228575576,-0.720874804,-0.105997192,-0.239496358,-0.721353864,0.930981537,0.473534941,-9.657491695,1.2581,0.3282,-9.6264
1.72,0.73,1260315492,517091.72,69.38,1,43.86,6.067,44.27762515,7.875547215,-2.64,0.44,16.61363636,-13.78863636,17.1328125,10.72,10.65,1.26E+18,517091.72,10.64,38.01653699,-122.0125098,0.100000001,0,0,0,0,0,8,RTK Integer (6),RTK Integer (6),,342.0007997,0,0,,0,0,0,0,0,0,0,0,0,0,0,0,1.72,0.73,1.26E+18,517091.72,0.71,38.01644802,-122.0130013,24.27725601,1.644189503,2.576295937,0.179200717,-0.0209,2.582520794,10,RTK Integer (6),gxInteger (24),RTK Integer (6),69.36771378,1.941925855,0.867973764,3.978942693,0.271351229,-0.239357225,-0.890631997,0.3013758,-0.252674388,-0.877198384,0.936965645,-0.755047631,-9.684457134,1.2646,-0.9011,-9.6346
1.73,0.74,1260315492,517091.73,69.38,1,43.833,6.072,44.25156577,7.886750155,-2.64,0.37,16.60340909,-16.41081081,17.05564202,10.73,10.66,1.26E+18,517091.73,10.65,38.01653699,-122.0125098,0.100000001,0,0,0,0,0,8,RTK Integer (6),RTK Integer (6),,342.0007997,0,0,,0,0,0,0,0,0,0,0,0,0,0,0,1.73,0.74,1.26E+18,517091.73,0.72,38.01644809,-122.013001,24.27750969,1.670066612,2.586670838,0.181480396,-0.0197,2.59302934,10,RTK Integer (6),gxInteger (24),RTK Integer (6),69.35900482,1.939576728,0.871869877,4.013285977,0.387233164,-0.238802895,-0.88939255,0.417113275,-0.25210143,-0.872041764,1.036786238,0.194191371,-9.679497259,1.3638,0.0475,-9.6407
1.74,0.75,1260315492,517091.74,69.37,1,43.807,6.077,44.2264986,7.897788283,-2.67,0.5,16.4071161,-12.154,16.97945736,10.74,10.67,1.26E+18,517091.74,10.66,38.01653699,-122.0125098,0.100000001,0,0,0,0,0,8,RTK Integer (6),RTK Integer (6),,342.0007997,0,0,,0,0,0,0,0,0,0,0,0,0,0,0,1.74,0.75,1.26E+18,517091.74,0.73,38.01644816,-122.0130007,24.27781105,1.696045516,2.595775026,0.188809595,-0.0221,2.602632715,10,RTK Integer (6),gxInteger (24),RTK Integer (6),69.35098341,1.937685967,0.875135736,4.160212222,0.345875465,-0.18917927,-0.757084492,0.371276651,-0.200535228,-0.741980345,0.911188277,0.713694693,-10.04161797,1.2502,0.5608,-10.0148
1.75,0.76,1260315492,517091.75,69.36,1,43.78,6.082,44.20044258,7.909017293,-2.68,0.5,16.3358209,-12.164,16.9034749,10.75,10.68,1.26E+18,517091.75,10.67,38.01653699,-122.0125098,0.100000001,0,0,0,0,0,8,RTK Integer (6),RTK Integer (6),,342.0007997,0,0,,0,0,0,0,0,0,0,0,0,0,0,0,1.75,0.76,1.26E+18,517091.75,0.74,38.01644823,-122.0130005,24.27800751,1.722105787,2.602896614,0.182719755,-0.0176,2.60930207,10,RTK Integer (6),gxInteger (24),RTK Integer (6),69.34204527,1.934420108,0.879031849,4.015497489,0.388955766,-0.33008339,-0.908619959,0.419405106,-0.343774677,-0.889803456,0.719952061,-0.647859838,-9.345363569,1.035,-0.7907,-9.3047
1.76,0.77,1260315492,517091.76,69.35,1,43.753,6.087,44.17438826,7.92025955,-2.67,0.39,16.38689139,-15.60769231,16.82807692,10.76,10.69,1.26E+18,517091.76,10.68,38.01653699,-122.0125098,0.100000001,0,0,0,0,0,8,RTK Integer (6),RTK Integer (6),,342.0007997,0,0,,0,0,0,0,0,0,0,0,0,0,0,0,1.76,0.77,1.26E+18,517091.76,0.75,38.0164483,-122.0130002,24.27817345,1.748230386,2.608971009,0.188161144,-0.0236,2.615747377,10,RTK Integer (6),gxInteger (24),RTK Integer (6),69.33408116,1.932414756,0.882125821,4.125076767,0.311560027,-0.19917941,-0.807672732,0.338618057,-0.211421426,-0.793546546,0.607593117,0.513793003,-10.40172348,0.958,0.354,-10.382
1.77,0.78,1260315492,517091.77,69.34,1,43.726,6.092,44.14833564,7.931515075,-2.7,0.51,16.19481481,-11.94509804,16.81769231,10.77,10.7,1.26E+18,517091.77,10.69,38.01653699,-122.0125098,0.100000001,0,0,0,0,0,8,RTK Integer (6),RTK Integer (6),,342.0007997,0,0,,0,0,0,0,0,0,0,0,0,0,0,0,1.77,0.78,1.26E+18,517091.77,0.76,38.01644837,-122.0129999,24.2784977,1.774417155,2.615045266,0.185431142,-0.0248,2.621611422,10,RTK Integer (6),gxInteger (24),RTK Integer (6),69.32491383,1.931326136,0.885391681,4.056017122,0.344080775,-0.108629996,-0.880763857,0.373568482,-0.12204001,-0.866885144,0.6047047,-0.297387061,-9.917589667,0.9386,-0.4502,-9.8858
1.78,0.79,1260315492,517091.78,69.33,1,43.699,6.096,44.12214656,7.941497778,-2.69,0.43,16.24498141,-14.17674419,16.74291188,10.78,10.71,1.26E+18,517091.78,10.7,38.01653699,-122.0125098,0.100000001,0,0,0,0,0,8,RTK Integer (6),RTK Integer (6),,342.0007997,0,0,,0,0,0,0,0,0,0,0,0,0,0,0,1.78,0.79,1.26E+18,517091.78,0.77,38.01644844,-122.0129996,24.27871895,1.800664518,2.620598071,0.195310219,-0.023,2.627866117,10,RTK Integer (6),gxInteger (24),RTK Integer (6),69.3184967,1.930122924,0.888600244,4.262309758,0.324150258,-0.125232083,-0.656168211,0.346066508,-0.13521804,-0.642858646,0.557648662,0.957265406,-9.615845413,0.8812,0.8084,-9.6053
1.79,0.8,1260315492,517091.79,69.32,1,43.672,6.102,44.09623553,7.954066024,-2.71,0.49,16.11512915,-12.45306122,16.66870229,10.79,10.72,1.26E+18,517091.79,10.71,38.01653699,-122.0125098,0.100000001,0,0,0,0,0,8,RTK Integer (6),RTK Integer (6),,342.0007997,0,0,,0,0,0,0,0,0,0,0,0,0,0,0,1.79,0.8,1.26E+18,517091.79,0.78,38.0164485,-122.0129993,24.27896881,1.826972987,2.626165051,0.199175615,-0.0186,2.633707235,10,RTK Integer (6),gxInteger (24),RTK Integer (6),69.31282442,1.927888389,0.893069315,4.337167011,0.445259616,-0.227215699,-0.584430025,0.464668772,-0.236058612,-0.565509344,0.555294549,0.366074838,-9.361008172,0.8699,0.2205,-9.3416
1.8,0.81,1260315492,517091.8,69.32,1,43.645,6.105,44.06991094,7.962786357,-2.69,0.31,16.22490706,-19.69354839,16.65839695,10.8,10.73,1.26E+18,517091.8,10.72,38.01653699,-122.0125098,0.100000001,0,0,0,0,0,8,RTK Integer (6),RTK Integer (6),,342.0007997,0,0,,0,0,0,0,0,0,0,0,0,0,0,0,1.8,0.81,1.26E+18,517091.8,0.79,38.01644858,-122.012999,24.27927208,1.853341181,2.632821794,0.195394885,-0.019,2.640062454,10,RTK Integer (6),gxInteger (24),RTK Integer (6),69.30577704,1.925596558,0.895934104,4.244425448,0.306301565,-0.224214323,-0.659973643,0.328304817,-0.234339738,-0.645723435,0.66833616,-0.389076921,-9.842999195,0.9987,-0.5425,-9.8077
1.81,0.82,1260315492,517091.81,69.31,1,43.618,6.107,44.0434487,7.970228792,-2.69,0.25,16.21486989,-24.428,16.58479087,10.81,10.74,1.26E+18,517091.81,10.73,38.01653699,-122.0125098,0.100000001,0,0,0,0,0,8,RTK Integer (6),RTK Integer (6),,342.0007997,0,0,,0,0,0,0,0,0,0,0,0,0,0,0,1.81,0.82,1.26E+18,517091.81,0.8,38.01644865,-122.0129987,24.27955818,1.879786356,2.641442529,0.199657774,-0.0297,2.648977512,10,RTK Integer (6),gxInteger (24),RTK Integer (6),69.30033394,1.925825741,0.901606386,4.322576022,0.565667302,0.017794207,-0.567438608,0.584416951,0.009167325,-0.54832061,0.861046954,0.405322529,-10.86243412,1.2256,0.2349,-10.8324
1.82,0.83,1260315492,517091.82,69.31,1,43.591,6.111,44.01726482,7.980258313,-2.7,0.31,16.14481481,-19.71290323,16.57452471,10.82,10.75,1.26E+18,517091.82,10.74,38.01653699,-122.0125098,0.100000001,0,0,0,0,0,8,RTK Integer (6),RTK Integer (6),,342.0007997,0,0,,0,0,0,0,0,0,0,0,0,0,0,0,1.82,0.83,1.26E+18,517091.82,0.81,38.01644871,-122.0129985,24.27981567,1.906314852,2.649626509,0.194102711,-0.0264,2.656726651,10,RTK Integer (6),gxInteger (24),RTK Integer (6),69.29334386,1.925310079,0.904012809,4.189811538,0.245012166,-0.051970935,-0.709693887,0.268717206,-0.063025357,-0.700154426,0.820775272,-0.589321438,-9.473796576,1.1386,-0.7382,-9.4304
1.83,0.84,1260315492,517091.83,69.3,1,43.564,6.113,43.99080432,7.987720164,-2.7,0.23,16.13481481,-26.57826087,16.50151515,10.83,10.76,1.26E+18,517091.83,10.75,38.01653699,-122.0125098,0.100000001,0,0,0,0,0,8,RTK Integer (6),RTK Integer (6),,342.0007997,0,0,,0,0,0,0,0,0,0,0,0,0,0,0,1.83,0.84,1.26E+18,517091.83,0.82,38.01644879,-122.0129982,24.28018188,1.932927348,2.658361778,0.196995177,-0.026,2.665650847,10,RTK Integer (6),gxInteger (24),RTK Integer (6),69.28623918,1.924737121,0.905502499,4.238098695,0.16504775,-0.06060694,-0.667007456,0.187357199,-0.071046767,-0.66004738,0.872119047,0.281316243,-9.753062069,1.1992,0.1277,-9.7215
1.84,0.85,1260315492,517091.84,69.29,1,43.537,6.117,43.9646228,7.997772111,-2.72,0.35,16.00625,-17.47714286,16.4290566,10.84,10.77,1.26E+18,517091.84,10.76,38.01653699,-122.0125098,0.100000001,0,0,0,0,0,8,RTK Integer (6),RTK Integer (6),,342.0007997,0,0,,0,0,0,0,0,0,0,0,0,0,0,0,1.84,0.85,1.26E+18,517091.84,0.83,38.01644886,-122.0129979,24.2804718,1.95962085,2.665646555,0.200575012,-0.029,2.673181978,10,RTK Integer (6),gxInteger (24),RTK Integer (6),69.28016583,1.924851713,0.906533823,4.303078621,0.102071298,0.012509548,-0.613279954,0.122612968,0.002864789,-0.609627094,0.72664897,0.319760624,-10.10641197,1.0657,0.1603,-10.0801
1.85,0.86,1260315492,517091.85,69.29,1,43.51,6.121,43.93844263,8.007836038,-2.73,0.31,15.93772894,-19.74516129,16.35714286,10.85,10.78,1.26E+18,517091.85,10.77,38.01653699,-122.0125098,0.100000001,0,0,0,0,0,8,RTK Integer (6),RTK Integer (6),,342.0007997,0,0,,0,0,0,0,0,0,0,0,0,0,0,0,1.85,0.86,1.26E+18,517091.85,0.84,38.01644892,-122.0129976,24.28066063,1.986386873,2.672495239,0.200792323,-0.0188,2.680027679,10,RTK Integer (6),gxInteger (24),RTK Integer (6),69.27392059,1.922903656,0.907565147,4.296725383,0.104286716,-0.196319658,-0.63328733,0.125477757,-0.206264806,-0.62624287,0.691589141,-0.003481634,-8.779703101,0.9858,-0.1421,-8.7504
1.86,0.87,1260315492,517091.86,69.28,1,43.482,6.124,43.91113412,8.016801905,-2.73,0.27,15.92747253,-22.68148148,16.28539326,10.86,10.79,1.26E+18,517091.86,10.78,38.01653699,-122.0125098,0.100000001,0,0,0,0,0,8,RTK Integer (6),RTK Integer (6),,342.0007997,0,0,,0,0,0,0,0,0,0,0,0,0,0,0,1.86,0.87,1.26E+18,517091.86,0.85,38.016449,-122.0129973,24.28106117,2.013214727,2.678081241,0.200124774,-0.03,2.685548186,10,RTK Integer (6),gxInteger (24),RTK Integer (6),69.26727428,1.923018248,0.90808081,4.273594434,0.071890063,0.011007116,-0.624900184,0.092819163,0.001145916,-0.622232166,0.557585299,-0.077386414,-10.91074912,0.9234,-0.2499,-10.8833
